SALE TYPE,PROPERTY TYPE,ADDRESS,CITY,STATE OR PROVINCE,ZIP OR POSTAL CODE,PRICE,BEDS,BATHS,LOCATION,SQUARE FEET,LOT SIZE,YEAR BUILT,DAYS ON MARKET,$/SQUARE FEET,HOA/MONTH,URL (SEE https://www.redfin.com/buy-a-home/comparative-market-analysis FOR INFO ON PRICING),SOURCE,MLS#,LATITUDE,LONGITUDE
MLS Listing,Townhouse,845 Wescott Sq,Eagan,MN,55123,349000,3,3,Eagan,1546,5445,1994,5,226,250,https://www.redfin.com/MN/Eagan/845-Wescott-Sq-55123/home/50718422,NORTHSTARMLS,6159156,44.8330868,-93.1297346
MLS Listing,Townhouse,18314 Gladden Ln,Lakeville,MN,55044,425000,4,4,Lakeville,2290,1785,2019,19,186,205,https://www.redfin.com/MN/Lakeville/18314-Gladden-Ln-55044/home/145319089,NORTHSTARMLS,6153258,44.6833647,-93.2201568
MLS Listing,Single Family Residential,17904 Greenwich Way,Lakeville,MN,55044,574900,4,3,Summers Creek,3194,4486,2022,1,180,160,https://www.redfin.com/MN/Lakeville/17904-Greenwich-Way-55044/home/172759912,NORTHSTARMLS,6164143,44.6913182,-93.2268148
MLS Listing,Single Family Residential,17908 Greenwich Way,Lakeville,MN,55044,679900,5,3,Summers Creek,3611,4486,2022,1,188,160,https://www.redfin.com/MN/Lakeville/17908-Greenwich-Way-55044/home/172759913,NORTHSTARMLS,6163589,44.6912686,-93.226611
MLS Listing,Townhouse,4837 Bisset Ln #8105,Inver Grove Heights,MN,55076,280000,2,2,Inver Grove Heights,1524,,2005,1,184,336,https://www.redfin.com/MN/Inver-Grove-Heights/4837-Bisset-Ln-55076/unit-8105/home/50671454,NORTHSTARMLS,6164131,44.878561,-93.055997
MLS Listing,Condo/Co-op,18500 Euclid St #102,Farmington,MN,55024,215000,2,2,Farmington,1107,,2000,1,194,369,https://www.redfin.com/MN/Farmington/18500-Euclid-St-55024/unit-102/home/50145743,NORTHSTARMLS,6164078,44.6822599,-93.1778875
MLS Listing,Single Family Residential,6720 134th St W,Apple Valley,MN,55124,399000,4,3,Apple Valley,2348,16552,1971,1,170,,https://www.redfin.com/MN/Apple-Valley/6720-134th-St-W-55124/home/50682833,NORTHSTARMLS,6162036,44.7555777,-93.2016433
MLS Listing,Condo/Co-op,150 E Burnsville Pkwy #115,Burnsville,MN,55337,239900,2,2,Burnsville,1568,,2004,1,153,527,https://www.redfin.com/MN/Burnsville/150-E-Burnsville-Pkwy-55337/unit-115/home/49895955,NORTHSTARMLS,6164022,44.773328,-93.275695
MLS Listing,Townhouse,15734 Fox Cir,Apple Valley,MN,55124,339000,3,3,Apple Valley,1913,1913,2003,1,177,254,https://www.redfin.com/MN/Apple-Valley/15734-Fox-Cir-55124/home/50665911,NORTHSTARMLS,6163635,44.7218369,-93.2031639
MLS Listing,Condo/Co-op,12940 Nicollet Ave #301,Burnsville,MN,55337,93400,1,1,Burnsville,675,,1970,1,138,378,https://www.redfin.com/MN/Burnsville/12940-Nicollet-Ave-55337/unit-301/home/50170370,NORTHSTARMLS,6157419,44.7689412,-93.2786783
MLS Listing,Townhouse,4828 Avery Ct,Eagan,MN,55123,420575,3,3,Avery Pines,1854,,2022,1,227,250,https://www.redfin.com/MN/St-Paul/4828-Avery-CT-55123/home/178646989,NORTHSTARMLS,6163340,44.78093687,-93.1136557
MLS Listing,Townhouse,4832 Avery Ct,Eagan,MN,55123,401490,3,3,Avery Pines,1854,,2022,1,217,250,https://www.redfin.com/MN/St-Paul/4832-Avery-CT-55123/home/178646988,NORTHSTARMLS,6163357,44.78093687,-93.1136557
MLS Listing,Single Family Residential,19384 Ellington Trl,Farmington,MN,55024,400000,3,3,Farmington,2140,10018,1994,1,187,,https://www.redfin.com/MN/Farmington/19384-Ellington-Trl-55024/home/50722588,NORTHSTARMLS,6162096,44.6691862,-93.1669453
MLS Listing,Single Family Residential,950 19th St W,Hastings,MN,55033,342000,4,2,Hastings,1980,9016,1976,1,173,,https://www.redfin.com/MN/Hastings/950-19th-St-W-55033/home/50726082,NORTHSTARMLS,6163670,44.726605,-92.8646854
MLS Listing,Single Family Residential,4796 Eriks Blvd,Eagan,MN,55122,415000,3,2,Eagan,2012,20037,1978,1,206,,https://www.redfin.com/MN/Eagan/4796-Eriks-Blvd-55122/home/50718054,NORTHSTARMLS,6163702,44.7866739,-93.167808
MLS Listing,Condo/Co-op,3578 Blue Jay Way #104,Eagan,MN,55123,180000,1,1,Eagan,820,,1985,1,220,211,https://www.redfin.com/MN/Eagan/3578-Blue-Jay-Way-55123/unit-104/home/50144342,NORTHSTARMLS,6164009,44.8280447,-93.1447126
MLS Listing,Townhouse,15608 Eagle Bay Dr,Apple Valley,MN,55124,330000,3,4,Apple Valley,2068,,2005,1,160,380,https://www.redfin.com/MN/Apple-Valley/15608-Eagle-Bay-Dr-55124/unit-102/home/50029866,NORTHSTARMLS,6146002,44.7242838,-93.1679263
MLS Listing,Townhouse,4128 Durham Ct #137,Eagan,MN,55122,239900,2,1,Eagan,1232,,1992,1,195,210,https://www.redfin.com/MN/St-Paul/4128-Durham-Ct-55122/unit-137/home/50708897,NORTHSTARMLS,6163830,44.8069426,-93.2024788
MLS Listing,Townhouse,20868 Glade Ave,Lakeville,MN,55044,509900,3,3,Lakeville,3087,4791,2016,1,165,185,https://www.redfin.com/MN/Lakeville/20868-Glade-Ave-55044/home/113769482,NORTHSTARMLS,6162952,44.6473443,-93.2192076
MLS Listing,Single Family Residential,19164 Colonial Trl,Farmington,MN,55024,475000,4,3,Farmington,2275,10018,2021,1,209,175,https://www.redfin.com/MN/Farmington/19164-Colonial-TRL-Unknown/home/176675688,NORTHSTARMLS,6148790,44.67249295,-93.13966668
MLS Listing,Townhouse,18112 Glassfern Ln,Lakeville,MN,55044,439900,4,4,Lakeville,2587,,2015,1,170,205,https://www.redfin.com/MN/Lakeville/18112-Glassfern-Ln-55044/home/113769398,NORTHSTARMLS,6163940,44.6869995,-93.2151815
MLS Listing,Townhouse,864 Ivy Ln,Eagan,MN,55123,380000,2,2,Eagan,1136,6969,1999,1,335,390,https://www.redfin.com/MN/Eagan/864-Ivy-Ln-55123/home/50716496,NORTHSTARMLS,6163954,44.83138,-93.1307209
MLS Listing,Single Family Residential,3280 Heritage Ln,Eagan,MN,55121,375000,3,2,Eagan,1851,31188,1956,1,203,,https://www.redfin.com/MN/Eagan/3280-Heritage-Ln-55121/home/50711805,NORTHSTARMLS,6141734,44.8383496,-93.1860075
MLS Listing,Condo/Co-op,4130 Rahn Rd Unit B205,Eagan,MN,55122,119900,2,1,Eagan,900,,1972,1,133,399,https://www.redfin.com/MN/Eagan/4130-Rahn-Rd-55122/unit-B205/home/178443131,NORTHSTARMLS,6163503,44.806893,-93.2057051
MLS Listing,Townhouse,15081 December Way,Rosemount,MN,55068,280000,3,2,Rosemount,1574,2526,1994,1,178,234,https://www.redfin.com/MN/Rosemount/15081-December-Way-55068/home/50077807,NORTHSTARMLS,6160488,44.731291,-93.151307
MLS Listing,Townhouse,7261 Brittany Ln,Inver Grove Heights,MN,55076,249900,3,2,Inver Grove Heights,1378,,1994,2,181,250,https://www.redfin.com/MN/Inver-Grove-Heights/7261-Brittany-Ln-55076/unit-46/home/50000927,NORTHSTARMLS,6163506,44.8448741,-93.0527735
MLS Listing,Single Family Residential,18382 Hamby Dr,Lakeville,MN,55044,468089,3,2,Pinnacle Reserve,1801,9147,2022,3,260,170,https://www.redfin.com/MN/Lakeville/18382-Hamby-DR-55044/home/177689895,NORTHSTARMLS,6163454,44.68242836,-93.2307826
MLS Listing,Single Family Residential,7436 Agate Trl,Inver Grove Heights,MN,55077,849900,5,4,Inver Grove Heights,3885,8712,2022,3,219,,https://www.redfin.com/MN/Inver-Grove-Heights/7436-Agate-Trl-55077/home/178621947,NORTHSTARMLS,6163459,44.8517582,-93.089612
MLS Listing,Townhouse,5046 161st St W,Lakeville,MN,55044,502600,2,3,Spirit of Brandtjen Farm,2025,1306,2022,3,248,492,https://www.redfin.com/MN/Lakeville/5046-161st-St-W-55044/home/172759752,NORTHSTARMLS,6163444,44.7154571,-93.1675777
MLS Listing,Single Family Residential,17082 Hamilton Dr,Lakeville,MN,55044,400000,4,2,Lakeville,2362,13808,1987,3,169,,https://www.redfin.com/MN/Lakeville/17082-Hamilton-Dr-55044/home/50737703,NORTHSTARMLS,6151808,44.7028154,-93.226883
MLS Listing,Townhouse,13793 Atrium Ave #2702,Rosemount,MN,55068,274900,3,3,Rosemount,1530,,2005,3,180,360,https://www.redfin.com/MN/Rosemount/13793-Atrium-Ave-55068/unit-2702/home/50675080,NORTHSTARMLS,6163362,44.7493213,-93.0964593
MLS Listing,Single Family Residential,1454 Stickney Ave,South Saint Paul,MN,55075,280000,3,2,South Saint Paul,1708,5662,1953,3,164,,https://www.redfin.com/MN/South-St-Paul/1454-Stickney-Ave-55075/home/50033545,NORTHSTARMLS,6107654,44.9143753,-93.0604567
MLS Listing,Townhouse,20042 Ideal Way,Lakeville,MN,55044,375000,3,3,Lakeville,2180,1524,1995,4,172,200,https://www.redfin.com/MN/Lakeville/20042-Ideal-Way-55044/home/50185602,NORTHSTARMLS,6163333,44.659222,-93.253754
MLS Listing,Townhouse,12901 Echo Ln,Apple Valley,MN,55124,190000,2,1,Apple Valley,1076,,1989,4,177,235,https://www.redfin.com/MN/Apple-Valley/12901-Echo-Ln-55124/home/50684754,NORTHSTARMLS,6163325,44.7628825,-93.1678868
MLS Listing,Single Family Residential,15135 December Trl Unit TRI,Rosemount,MN,55068,429900,5,3,Rosemount,2257,10410,1995,4,190,,https://www.redfin.com/MN/Rosemount/15135-December-Trl-55068/unit-TRI/home/50755443,NORTHSTARMLS,6156792,44.7299896,-93.1544569
MLS Listing,Single Family Residential,13717 Oakland Dr,Burnsville,MN,55337,375000,4,2,Burnsville,2143,19166,1974,4,175,,https://www.redfin.com/MN/Burnsville/13717-Oakland-Dr-55337/home/50692444,NORTHSTARMLS,6163310,44.7545023,-93.2662602
MLS Listing,Townhouse,5052 161st St W,Lakeville,MN,55044,529700,3,3,Spirit of Brandtjen Farm,2045,1524,2022,4,259,492,https://www.redfin.com/MN/Lakeville/5052-161st-St-W-55044/home/172759754,NORTHSTARMLS,6163294,44.7154639,-93.1676258
MLS Listing,Single Family Residential,4745 Bristol Blvd,Eagan,MN,55123,585000,5,4,Eagan,3140,30579,1993,4,186,,https://www.redfin.com/MN/Eagan/4745-Bristol-Blvd-55123/home/50718160,NORTHSTARMLS,6153122,44.784804,-93.1106653
MLS Listing,Single Family Residential,2002 Tamarack Ln,Burnsville,MN,55337,359000,4,2,Burnsville,2260,10890,1964,4,159,,https://www.redfin.com/MN/Burnsville/2002-Tamarack-Ln-55337/home/50698149,NORTHSTARMLS,6143215,44.7983199,-93.2453598
MLS Listing,Single Family Residential,18235 Euclid Ave,Farmington,MN,55024,329900,4,2,Farmington,2158,16552,1970,4,153,,https://www.redfin.com/MN/Farmington/18235-Euclid-Ave-55024/home/50096958,NORTHSTARMLS,6161220,44.6854184,-93.1789465
MLS Listing,Townhouse,7563 Dawn Ave,Inver Grove Heights,MN,55076,199900,3,2,Inver Grove Heights,1616,2221,1972,4,124,278,https://www.redfin.com/MN/Inver-Grove-Heights/7563-Dawn-Ave-E-55076/home/50732287,NORTHSTARMLS,6158333,44.8400156,-93.0249605
MLS Listing,Single Family Residential,3621 Sawgrass Trl S,Eagan,MN,55123,815000,5,5,Eagan,4350,12022,2014,4,187,86,https://www.redfin.com/MN/Eagan/3621-Sawgrass-Trl-S-55123/home/50678354,NORTHSTARMLS,6160903,44.825264,-93.1380721
MLS Listing,Single Family Residential,9605 320th St W,Northfield,MN,55057,2200000,4,5,Northfield,7500,1132560,2003,4,293,,https://www.redfin.com/MN/Northfield/9605-320th-St-W-55057/home/113770308,NORTHSTARMLS,6162542,44.492804,-93.260193
MLS Listing,Single Family Residential,10241 205th St W,Lakeville,MN,55044,1390000,3,2,Lakeville,960,49222,1920,4,1448,,https://www.redfin.com/MN/Lakeville/10241-205th-St-W-55044/home/50736726,NORTHSTARMLS,6162989,44.654697,-93.273092
MLS Listing,Multi-Family (2-4 Unit),15713 Maple Island Ct,Burnsville,MN,55306,369900,4,3,Burnsville,2540,7405,1990,4,146,,https://www.redfin.com/MN/Burnsville/15713-Maple-Island-Ct-55306/home/50696845,NORTHSTARMLS,6162990,44.71876,-93.277979
MLS Listing,Single Family Residential,22466 Cantrel Way,Farmington,MN,55024,400000,3,3,Farmington,2559,10018,2014,4,156,,https://www.redfin.com/MN/Farmington/22466-Cantrel-Way-55024/home/50673568,NORTHSTARMLS,6162936,44.6238354,-93.1331538
MLS Listing,Single Family Residential,1403 Featherstone Rd,Hastings,MN,55033,599000,3,2,Hastings,2656,174240,1955,4,226,,https://www.redfin.com/MN/Hastings/1403-Featherstone-Rd-55033/home/50724328,NORTHSTARMLS,6154910,44.745215,-92.881369
MLS Listing,Single Family Residential,12974 Findlay Way,Apple Valley,MN,55124,360000,5,2,Apple Valley,1980,11761,1973,4,182,,https://www.redfin.com/MN/Apple-Valley/12974-Findlay-Way-55124/home/50683243,NORTHSTARMLS,6162537,44.7602913,-93.1939915
MLS Listing,Single Family Residential,576 Michigan Ct,Eagan,MN,55123,459900,4,3,Eagan,2504,30056,1976,4,184,,https://www.redfin.com/MN/Eagan/576-Michigan-Ct-55123/home/50711991,NORTHSTARMLS,6158861,44.7952091,-93.1125455
MLS Listing,Townhouse,815 Evergreen Cir,Burnsville,MN,55337,239900,3,2,Burnsville,1501,5009,1982,4,160,293,https://www.redfin.com/MN/Burnsville/815-Evergreen-Cir-55337/home/50050931,NORTHSTARMLS,6159013,44.7480187,-93.2638208
MLS Listing,Condo/Co-op,3100 Riverwood Dr #102,Hastings,MN,55033,165000,2,1,Hastings,983,,1988,4,168,250,https://www.redfin.com/MN/Hastings/3100-Riverwood-Dr-55033/unit-102/home/50727159,NORTHSTARMLS,6161772,44.7170558,-92.8687383
MLS Listing,Single Family Residential,31630 Eveleth Ave,Northfield,MN,55057,599000,6,4,Northfield,4670,217800,1923,4,128,,https://www.redfin.com/MN/Northfield/31630-Eveleth-Ave-55057/home/49915970,NORTHSTARMLS,6157979,44.4913688,-93.1795545
MLS Listing,Single Family Residential,1058 Smith Ave S,West Saint Paul,MN,55118,325000,3,3,West Saint Paul,2172,8755,1937,5,150,,https://www.redfin.com/MN/West-St-Paul/1058-Smith-Ave-S-55118/home/50763023,NORTHSTARMLS,6162802,44.9145109,-93.101481
MLS Listing,Single Family Residential,19800 Canada Ave,Farmington,MN,55024,449900,4,3,Farmington,2368,16160,1999,5,190,,https://www.redfin.com/MN/Farmington/19800-Canada-Ave-55024/home/50719927,NORTHSTARMLS,6162536,44.6625385,-93.1314296
MLS Listing,Condo/Co-op,15400 Chippendale Ave W #203,Rosemount,MN,55068,223900,2,2,Rosemount,1107,,2002,5,202,324,https://www.redfin.com/MN/Rosemount/15400-Chippendale-Ave-W-55068/unit-203/home/50668506,NORTHSTARMLS,6162207,44.7251826,-93.1355443
MLS Listing,Single Family Residential,13832 Adan Ave,Rosemount,MN,55068,570000,4,4,Rosemount,2447,8668,2020,5,233,33,https://www.redfin.com/MN/Rosemount/13832-Adan-Ave-55068/home/169895006,NORTHSTARMLS,6162789,44.7504983,-93.0780091
MLS Listing,Townhouse,5356 Upper 147th St W,Apple Valley,MN,55124,245000,2,1,Apple Valley,1576,,1988,5,155,347,https://www.redfin.com/MN/Apple-Valley/5356-Upper-147th-St-W-55124/home/50689374,NORTHSTARMLS,6162766,44.735612,-93.174707
MLS Listing,Single Family Residential,1725 Congress St,South Saint Paul,MN,55075,335000,4,2,South Saint Paul,1835,7187,1965,5,183,,https://www.redfin.com/MN/South-St-Paul/1725-Congress-St-55075/home/50756013,NORTHSTARMLS,6145103,44.8995755,-93.0561136
MLS Listing,Single Family Residential,5612 162nd St W,Lakeville,MN,55044,599900,3,3,Lakeville,2648,10497,2018,5,227,,https://www.redfin.com/MN/Lakeville/5612-162nd-St-W-55044/home/113770648,NORTHSTARMLS,6162649,44.7144379,-93.1786327
MLS Listing,Single Family Residential,5940 Bryant Ln,Inver Grove Heights,MN,55076,665000,5,4,Inver Grove Heights,4021,16727,1997,5,165,2,https://www.redfin.com/MN/Inver-Grove-Heights/5940-Bryant-Ln-55076/home/50732208,NORTHSTARMLS,6162390,44.8625678,-93.0474873
MLS Listing,Townhouse,14663 Sherwood Pl,Burnsville,MN,55306,319900,3,3,Burnsville,2004,1742,1988,5,160,344,https://www.redfin.com/MN/Burnsville/14663-Sherwood-Pl-55306/home/50699081,NORTHSTARMLS,6162605,44.736242,-93.263615
MLS Listing,Single Family Residential,1221 136th St W,Rosemount,MN,55068,493515,4,3,Ardan Place,2268,13503,2022,5,218,,https://www.redfin.com/MN/Rosemount/1221-136th-St-W-55068/home/178598654,NORTHSTARMLS,6162586,44.7514758,-93.1093341
MLS Listing,Single Family Residential,14692 Denmark Ct,Apple Valley,MN,55124,385000,5,3,Apple Valley,2672,13068,1977,5,144,,https://www.redfin.com/MN/Apple-Valley/14692-Denmark-Ct-55124/home/50038031,NORTHSTARMLS,6158296,44.7375948,-93.1567505
MLS Listing,Townhouse,4870 Bivens Ct #8701,Inver Grove Heights,MN,55076,260000,3,3,Inver Grove Heights,1776,,2004,5,146,336,https://www.redfin.com/MN/Inver-Grove-Heights/4870-Bivens-Ct-55076/unit-8701/home/50109612,NORTHSTARMLS,6157796,44.8783889,-93.0544395
MLS Listing,Single Family Residential,17985 Equinox Ave,Lakeville,MN,55044,490000,3,3,Lakeville,1968,8276,2018,5,249,,https://www.redfin.com/MN/Lakeville/17985-Equinox-Ave-55044/home/113770847,NORTHSTARMLS,6154349,44.688996,-93.173475
MLS Listing,Townhouse,13252 Huntington Ter,Apple Valley,MN,55124,449000,3,3,Apple Valley,2212,3789,1998,5,203,358,https://www.redfin.com/MN/Apple-Valley/13252-Huntington-Ter-55124/home/50688043,NORTHSTARMLS,6154385,44.7565384,-93.2409609
MLS Listing,Single Family Residential,958 Humboldt Ave,West Saint Paul,MN,55118,279000,4,2,West Saint Paul,1928,6969,1900,5,145,,https://www.redfin.com/MN/West-St-Paul/958-Humboldt-Ave-55118/home/50071909,NORTHSTARMLS,6162109,44.9172587,-93.0848008
MLS Listing,Single Family Residential,19741 Henley Ln,Lakeville,MN,55044,699900,5,4,Berres Ridge 5th,3516,12980,2021,5,199,,https://www.redfin.com/MN/Lakeville/19741-Henley-Ln-55044/home/177570194,NORTHSTARMLS,6162412,44.662117,-93.2296832
MLS Listing,Single Family Residential,976 Kay Ave,Mendota Heights,MN,55118,440000,3,2,Mendota Heights,2488,16117,1958,5,177,,https://www.redfin.com/MN/Mendota-Heights/976-Kay-Ave-55118/home/50046997,NORTHSTARMLS,6154784,44.8849669,-93.1389735
MLS Listing,Single Family Residential,126 2nd Ave S,South Saint Paul,MN,55075,299900,3,2,South Saint Paul,1494,5009,1916,5,201,,https://www.redfin.com/MN/South-St-Paul/126-2nd-Ave-S-55075/home/49902584,NORTHSTARMLS,6162287,44.8897786,-93.0363203
MLS Listing,Single Family Residential,19672 Hibbing Way,Lakeville,MN,55044,760000,4,3,Lakeville,3496,12850,2017,5,217,,https://www.redfin.com/MN/Lakeville/19672-Hibbing-Way-55044/home/113769890,NORTHSTARMLS,6162327,44.6654285,-93.2331851
MLS Listing,Single Family Residential,18167 Green Gables Trl,Lakeville,MN,55044,559977,4,3,Lakeville,2744,8712,2019,6,204,64,https://www.redfin.com/MN/Lakeville/18167-Green-Gables-Trl-55044/home/113769243,NORTHSTARMLS,6162301,44.6860951,-93.226137
MLS Listing,Single Family Residential,14300 Alder Way,Rosemount,MN,55068,611576,5,4,Emerald Isle,3483,12632,2022,6,176,,https://www.redfin.com/MN/Rosemount/14300-Alder-WAY-55068/home/178605225,NORTHSTARMLS,6162298,44.743566,-93.07728685
MLS Listing,Single Family Residential,702 Greten Ln,Hastings,MN,55033,439900,5,3,Hastings,2722,10018,2002,6,162,9,https://www.redfin.com/MN/Hastings/702-Greten-Ln-55033/home/50771284,NORTHSTARMLS,6155375,44.7129291,-92.8609445
MLS Listing,Single Family Residential,14301 Alder Way,Rosemount,MN,55068,626247,5,4,Emerald Isle,3317,12632,2022,6,189,,https://www.redfin.com/MN/Rosemount/14301-Alder-WAY-55068/home/178562951,NORTHSTARMLS,6162272,44.74336787,-93.07812369
MLS Listing,Single Family Residential,14360 Aspen Ave,Rosemount,MN,55068,606572,5,4,Emerald Isle,3317,9147,2022,6,183,,https://www.redfin.com/MN/Rosemount/14360-Aspen-Ave-55068/home/178562728,NORTHSTARMLS,6157671,44.74222481,-93.07932532
MLS Listing,Single Family Residential,18048 Gleaming Ct,Lakeville,MN,55044,570000,4,3,Lakeville,2283,8712,2018,6,250,58,https://www.redfin.com/MN/Lakeville/18048-Gleaming-Ct-55044/home/113769367,NORTHSTARMLS,6162257,44.6883192,-93.2193646
MLS Listing,Townhouse,18602 Jonesboro Ct,Lakeville,MN,55044,374900,3,3,Lakeville,2009,1916,2020,6,187,245,https://www.redfin.com/MN/Lakeville/18602-Jonesboro-Ct-55044/home/50671823,NORTHSTARMLS,6160801,44.680048,-93.2785419
MLS Listing,Single Family Residential,18129 Icon Ct,Lakeville,MN,55044,724900,5,4,Lakeville,3867,9104,2018,6,187,,https://www.redfin.com/MN/Lakeville/18129-Icon-Ct-55044/home/108265822,NORTHSTARMLS,6158370,44.6869475,-93.2497592
MLS Listing,Single Family Residential,1065 Keefe St,Eagan,MN,55121,349900,4,2,Eagan,1490,10105,1957,6,235,,https://www.redfin.com/MN/Eagan/1065-Keefe-St-55121/home/50712918,NORTHSTARMLS,6157048,44.8516601,-93.1450487
MLS Listing,Single Family Residential,17989 Fullerton Ct,Lakeville,MN,55044,614900,5,4,Lakeville,3982,15681,2004,6,154,,https://www.redfin.com/MN/Lakeville/17989-Fullerton-Ct-55044/home/50177515,NORTHSTARMLS,6162041,44.688683,-93.197922
MLS Listing,Single Family Residential,825 9th Ave S,South Saint Paul,MN,55075,195000,2,1,South Saint Paul,890,5009,1945,6,219,,https://www.redfin.com/MN/South-St-Paul/825-9th-Ave-S-55075/home/50757422,NORTHSTARMLS,6162020,44.8772953,-93.0447295
MLS Listing,Single Family Residential,12138 Gantry Ln,Apple Valley,MN,55124,500000,4,4,Apple Valley,3473,20473,1990,6,144,,https://www.redfin.com/MN/Apple-Valley/12138-Gantry-Ln-55124/home/50680784,NORTHSTARMLS,6158008,44.7726588,-93.210827
MLS Listing,Single Family Residential,1793 86th Ct E,Inver Grove Heights,MN,55077,1495000,5,5,Inver Grove Heights,5358,63162,2013,6,279,,https://www.redfin.com/MN/Inver-Grove-Heights/1793-86th-Ct-E-55077/home/50671391,NORTHSTARMLS,6161199,44.825521,-93.0693006
MLS Listing,Townhouse,15880 Griffon Path,Apple Valley,MN,55124,240000,2,3,Apple Valley,1570,7274,1990,6,153,244,https://www.redfin.com/MN/Apple-Valley/15880-Griffon-Path-55124/home/50686086,NORTHSTARMLS,6161838,44.718493,-93.223635
MLS Listing,Townhouse,15510 Float Ln #140,Apple Valley,MN,55124,245000,3,1,Apple Valley,1228,,2001,6,200,215,https://www.redfin.com/MN/Apple-Valley/15510-Float-Ln-55124/unit-140/home/50768362,NORTHSTARMLS,6161892,44.7245286,-93.1989235
MLS Listing,Single Family Residential,14261 Aspen Ave,Rosemount,MN,55068,661400,5,4,Rosemount,3296,9147,2022,6,201,,https://www.redfin.com/MN/Rosemount/14261-Aspen-Ave-55068/home/178544497,NORTHSTARMLS,6161762,44.74328895,-93.0796051
MLS Listing,Single Family Residential,1361 143rd St,Rosemount,MN,55068,551900,3,3,Rosemount,2016,9147,2022,6,274,,https://www.redfin.com/MN/Rosemount/1361-143rd-St-E-55068/home/178544494,NORTHSTARMLS,6161769,44.7439329,-93.0756567
MLS Listing,Single Family Residential,3428 70th Ct E,Inver Grove Heights,MN,55076,290000,3,1,Inver Grove Heights,1323,12066,1961,7,219,,https://www.redfin.com/MN/Inver-Grove-Heights/3428-70th-Ct-E-55076/home/50734544,NORTHSTARMLS,6161148,44.8473282,-93.0363594
MLS Listing,Single Family Residential,2205 Horizon Pl,Burnsville,MN,55337,395000,3,4,Burnsville,2601,11456,1988,7,152,,https://www.redfin.com/MN/Burnsville/2205-Horizon-Pl-55337/home/50172651,NORTHSTARMLS,6148240,44.7859707,-93.2451242
MLS Listing,Single Family Residential,1457 143rd St,Rosemount,MN,55068,662600,4,3,Emerald Isle,2536,10454,2022,7,261,,https://www.redfin.com/MN/Rosemount/1457-143rd-St-E-55068/home/176210376,NORTHSTARMLS,6161667,44.7431657,-93.0818536
MLS Listing,Single Family Residential,13600 Carrakay Way,Rosemount,MN,55068,493805,3,4,Ardan Place,2242,9147,2022,7,220,,https://www.redfin.com/MN/Rosemount/13391-Ardroe-Ave-55068/home/176344279,NORTHSTARMLS,6161602,44.7618419,-93.0888872
MLS Listing,Single Family Residential,1313 143rd St,Rosemount,MN,55068,602300,4,3,Rosemount,2552,9147,2022,7,236,,https://www.redfin.com/MN/Rosemount/1313-143rd-St-W-55068/home/178537721,NORTHSTARMLS,6161556,44.74471564,-93.08172251
MLS Listing,Single Family Residential,23680 Main St,Hampton,MN,55031,325000,4,3,Hampton,1976,13068,1987,7,164,,https://www.redfin.com/MN/Hampton/23680-Main-St-55031/home/50724272,NORTHSTARMLS,6160907,44.6065504,-92.9974421
MLS Listing,Single Family Residential,517 8th St W,Hastings,MN,55033,199900,3,1,Hastings,1457,9931,1875,7,137,,https://www.redfin.com/MN/Hastings/517-8th-St-W-55033/home/50725010,NORTHSTARMLS,6156752,44.7381083,-92.8585287
MLS Listing,Townhouse,4773 Blaine Ave,Inver Grove Heights,MN,55076,250000,2,2,Inver Grove Heights,1590,,2003,7,157,300,https://www.redfin.com/MN/Inver-Grove-Heights/4773-Blaine-Ave-55076/unit-301/home/50098735,NORTHSTARMLS,6160983,44.879254,-93.0587503
MLS Listing,Single Family Residential,19969 Harrisburg Way,Lakeville,MN,55044,730995,4,3,Lakeville,2755,11674,2022,7,265,,https://www.redfin.com/MN/Lakeville/19969-Harrisburg-55044/home/171960777,NORTHSTARMLS,6159653,44.66029356,-93.22919211
MLS Listing,Townhouse,15963 Hyland Dr,Apple Valley,MN,55124,349900,3,3,Apple Valley,2242,2613,1997,7,156,220,https://www.redfin.com/MN/Apple-Valley/15963-Hyland-Dr-55124/home/50684949,NORTHSTARMLS,6161320,44.718154,-93.244484
MLS Listing,Single Family Residential,18172 Glanshaw Ave,Lakeville,MN,55044,535000,4,3,Lakeville,2420,9191,2018,7,221,56,https://www.redfin.com/MN/Lakeville/18172-Glanshaw-Ave-55044/home/113769406,NORTHSTARMLS,6153054,44.6859778,-93.214026
MLS Listing,Single Family Residential,2308 E 123rd St,Burnsville,MN,55337,390000,4,2,Burnsville,2192,11456,1977,7,178,,https://www.redfin.com/MN/Burnsville/2308-E-123rd-St-55337/home/50103656,NORTHSTARMLS,6161058,44.7803747,-93.2432585
MLS Listing,Single Family Residential,603 Quie Ln,Northfield,MN,55057,474900,3,3,Northfield,2415,16988,1996,7,197,,https://www.redfin.com/MN/Northfield/603-Quie-Ln-55057/home/50766540,NORTHSTARMLS,6160921,44.4751491,-93.1686119
MLS Listing,Single Family Residential,685 Shelerud Dr,Eagan,MN,55123,595000,6,3,Eagan,3362,12066,2004,8,177,,https://www.redfin.com/MN/Eagan/685-Shelerud-Dr-55123/home/50666044,NORTHSTARMLS,6141160,44.7887355,-93.1193617
MLS Listing,Condo/Co-op,1700 Four Oaks Rd #329,Eagan,MN,55121,149900,1,1,Eagan,780,,1979,8,192,242,https://www.redfin.com/MN/Eagan/1700-Four-Oaks-Rd-55121/unit-329/home/50707851,NORTHSTARMLS,6161089,44.8425826,-93.1834968
MLS Listing,Single Family Residential,1902 Ridge Ln,Hastings,MN,55033,357000,4,2,Hastings,1950,10759,1976,8,183,,https://www.redfin.com/MN/Hastings/1902-Ridge-Ln-55033/home/49924047,NORTHSTARMLS,6161070,44.7261327,-92.8667313
MLS Listing,Single Family Residential,4785 Beacon Hill Rd,Eagan,MN,55122,475000,4,2,Eagan,2368,15812,1981,8,201,,https://www.redfin.com/MN/Eagan/4785-Beacon-Hill-Rd-55122/home/50704412,NORTHSTARMLS,6161043,44.7838551,-93.1778286
MLS Listing,Single Family Residential,19365 Crocus Pl,Farmington,MN,55024,417990,3,3,North Creek,2033,8276,2022,8,206,36,https://www.redfin.com/MN/Farmington/19113-Colonial-Trl-55024/home/172755250,NORTHSTARMLS,6161014,44.67297,-93.140858
MLS Listing,Single Family Residential,19270 Euclid Path,Farmington,MN,55024,350000,4,2,Farmington,1884,11761,1988,8,186,,https://www.redfin.com/MN/Farmington/19270-Euclid-Path-55024/home/50721686,NORTHSTARMLS,6160828,44.6699819,-93.1785739
MLS Listing,Single Family Residential,13620 Carrakay Way,Rosemount,MN,55068,481805,4,2,Ardan Place,1988,9147,2022,8,242,,https://www.redfin.com/MN/Rosemount/13620-Carrakay-WAY-55068/home/178530013,NORTHSTARMLS,6157901,44.75186336,-93.0917644
MLS Listing,Townhouse,8744 Bechtel Ave #109,Inver Grove Heights,MN,55076,214900,2,2,Inver Grove Heights,1260,,1996,8,171,289,https://www.redfin.com/MN/Inver-Grove-Heights/8744-Bechtel-Ave-55076/unit-109/home/50730907,NORTHSTARMLS,6160849,44.82286,-93.043502
MLS Listing,Single Family Residential,18605 Harcourt Path,Lakeville,MN,55044,484515,4,4,The Grove at Avonlea,1870,8712,2022,8,259,64,https://www.redfin.com/MN/Lakeville/18605-Harcourt-Path-55044/home/178529325,NORTHSTARMLS,6160572,44.6792578,-93.229234
MLS Listing,Single Family Residential,3671 250th St W,Farmington,MN,55024,1600000,5,4,Farmington,4530,871200,1970,8,353,,https://www.redfin.com/MN/Farmington/3671-250th-St-W-55024/home/50702999,NORTHSTARMLS,6160637,44.5876159,-93.1402277
MLS Listing,Single Family Residential,6755 Blaine Ave,Inver Grove Heights,MN,55076,370000,4,2,Inver Grove Heights,1792,35283,1963,8,206,,https://www.redfin.com/MN/Inver-Grove-Heights/6755-Blaine-Ave-E-55076/home/50728933,NORTHSTARMLS,6155868,44.8514045,-93.0553898
MLS Listing,Townhouse,5469 Bryce Ave,Inver Grove Heights,MN,55076,245000,3,2,Inver Grove Heights,1495,2003,2004,8,164,219,https://www.redfin.com/MN/Inver-Grove-Heights/5469-Bryce-Ave-55076/home/50669278,NORTHSTARMLS,6158976,44.867996,-93.0472
MLS Listing,Townhouse,15868 Freedom Ln,Apple Valley,MN,55124,339900,3,3,Apple Valley,1686,1437,2004,8,202,254,https://www.redfin.com/MN/Apple-Valley/15868-Freedom-Ln-55124/home/50665762,NORTHSTARMLS,6160652,44.718917,-93.206071
MLS Listing,Single Family Residential,18080 Gleaming Path,Lakeville,MN,55044,505135,4,3,The Grove at Avonlea,2328,8712,2022,9,217,64,https://www.redfin.com/MN/Lakeville/18080-Gleaming-Path-55044/home/113769374,NORTHSTARMLS,6160571,44.6879396,-93.2198357
MLS Listing,Townhouse,16150 Eagleview Dr,Lakeville,MN,55044,534100,2,3,Spirit of Brandtjen Farm,2045,1306,2022,9,261,492,https://www.redfin.com/MN/Lakeville/16150-Eagleview-Dr-55044/home/172759755,NORTHSTARMLS,6160562,44.715218,-93.1677196
MLS Listing,Townhouse,20117 Geneva Trl,Lakeville,MN,55044,541720,3,2,Cedar Hills,1930,4791,2021,9,281,130,https://www.redfin.com/MN/Lakeville/20117-Geneva-Trl-55044/home/175552349,NORTHSTARMLS,6160536,44.6589,-93.2157
MLS Listing,Single Family Residential,206 Stanley St,West Saint Paul,MN,55118,249999,3,2,West Saint Paul,1043,9975,1936,9,240,,https://www.redfin.com/MN/St-Paul/206-Stanley-St-55118/home/50762475,NORTHSTARMLS,6140869,44.9131034,-93.0766195
MLS Listing,Single Family Residential,5590 Upper 179th St W,Lakeville,MN,55044,579200,4,3,Knob Hill,2552,8407,2022,10,227,,https://www.redfin.com/MN/Lakeville/5590-Upper-179th-ST-W-55044/home/172867319,NORTHSTARMLS,6160456,44.68884814,-93.17836786
MLS Listing,Single Family Residential,20360 Gateway Dr W,Lakeville,MN,55044,598795,4,3,Cedar Hills,2355,10018,2021,10,254,50,https://www.redfin.com/MN/Lakeville/20360-Gateway-Dr-55044/home/178522029,NORTHSTARMLS,6160474,44.6589,-93.2157
MLS Listing,Single Family Residential,17865 Evershed Way,Lakeville,MN,55044,699400,5,4,Knob Hill,3310,8712,2022,10,211,,https://www.redfin.com/MN/Lakeville/17865-Evershed-Way-55044/home/178522022,NORTHSTARMLS,6158869,44.6913659,-93.1850277
MLS Listing,Single Family Residential,17971 Hawksbill Dr,Lakeville,MN,55044,642900,5,4,Summer's Creek,3296,11325,2022,10,195,,https://www.redfin.com/MN/Lakeville/17971-Hawksbill-Dr-55044/home/178521930,NORTHSTARMLS,6160463,44.6897823,-93.2300103
MLS Listing,Single Family Residential,17948 Eclipse Ave,Lakeville,MN,55044,609100,5,4,Lakeville,3296,9278,2022,10,185,,https://www.redfin.com/MN/Lakeville/17948-Eclipse-Ave-Unknown/home/178521879,NORTHSTARMLS,6159739,44.689031,-93.1692304
MLS Listing,Single Family Residential,17967 Hawksbill Dr,Lakeville,MN,55044,624999,5,4,Summer's Creek,2910,9626,2022,10,215,,https://www.redfin.com/MN/Lakeville/17967-Hawksbill-Dr-55044/home/178521870,NORTHSTARMLS,6160446,44.6899692,-93.2299754
MLS Listing,Single Family Residential,7388 204th St W,Lakeville,MN,55044,559970,4,3,Cedar Hills,2271,11325,2021,10,247,50,https://www.redfin.com/MN/Lakeville/7388-204th-St-W-55044/home/178521712,NORTHSTARMLS,6160401,44.6589,-93.2157
MLS Listing,Single Family Residential,13645 Danube Ln,Rosemount,MN,55068,652000,6,4,Rosemount,3370,14984,1991,11,193,5,https://www.redfin.com/MN/Rosemount/13645-Danube-Ln-55068/home/50753276,NORTHSTARMLS,6160301,44.7514348,-93.1511834
MLS Listing,Single Family Residential,8212 198th St W,Lakeville,MN,55044,769900,5,4,Berres Ridge,3999,13068,2022,11,193,,https://www.redfin.com/MN/Lakeville/8212-198th-St-W-55044/home/178493601,NORTHSTARMLS,6160238,44.6633652,-93.232005
MLS Listing,Single Family Residential,241 Pinewood Dr,Apple Valley,MN,55124,299900,3,2,Apple Valley,2024,14374,1965,11,148,,https://www.redfin.com/MN/Apple-Valley/241-Pinewood-Dr-55124/home/50679553,NORTHSTARMLS,6160160,44.7378747,-93.2403914
MLS Listing,Single Family Residential,12570 Arklow Ave,Rosemount,MN,55068,734735,4,4,Meadow Ridge,3194,10454,2022,11,230,13,https://www.redfin.com/MN/Rosemount/12713-Amiens-Ave-55068/home/172761958,NORTHSTARMLS,6160169,44.7639052,-93.0865178
MLS Listing,Single Family Residential,14194 Garland Ave,Apple Valley,MN,55124,400000,4,2,Apple Valley,1903,15071,1969,11,210,,https://www.redfin.com/MN/Apple-Valley/14194-Garland-Ave-55124/home/49971476,NORTHSTARMLS,6159975,44.7439497,-93.2098653
MLS Listing,Single Family Residential,17901 Hayes Ave,Lakeville,MN,55044,674900,4,3,Summer's Creek,2688,15115,2022,11,251,,https://www.redfin.com/MN/Lakeville/17901-Hayes-Ave-55044/home/178490857,NORTHSTARMLS,6159974,44.691262,-93.2324162
MLS Listing,Single Family Residential,13678 Applewood Trl,Rosemount,MN,55068,488830,3,2,Caramore Crossing,1485,11325,2022,11,329,165,https://www.redfin.com/MN/Rosemount/13678-Applewood-TRL-55068/home/178490361,NORTHSTARMLS,6159650,44.75510462,-93.08662589
MLS Listing,Townhouse,16418 Elm Creek Ln #4027,Lakeville,MN,55044,295000,3,3,Lakeville,1420,,2007,11,208,250,https://www.redfin.com/MN/Lakeville/16418-Elm-Creek-Ln-55044/unit-04027/home/49919196,NORTHSTARMLS,6159425,44.712671,-93.177891
MLS Listing,Single Family Residential,5525 Annette Ave,Inver Grove Heights,MN,55077,410000,4,3,Inver Grove Heights,2252,11325,1973,12,182,,https://www.redfin.com/MN/Inver-Grove-Heights/5525-Annette-Ave-E-55077/home/50729591,NORTHSTARMLS,6159631,44.8688205,-93.0757388
MLS Listing,Single Family Residential,8630 Crismon Way,Inver Grove Heights,MN,55076,850000,5,5,Inver Grove Heights,4393,20691,2013,12,193,,https://www.redfin.com/MN/Inver-Grove-Heights/8630-Crismon-Way-55076/home/50176051,NORTHSTARMLS,6120673,44.8253502,-93.0221649
MLS Listing,Townhouse,13868 Kaylemore Trl,Rosemount,MN,55068,382250,3,3,Ardan Place,1894,1690,2022,12,202,235,https://www.redfin.com/MN/Rosemount/13868-Kaylemore-TRL-55068/home/178479816,NORTHSTARMLS,6159634,44.75237217,-93.09053522
MLS Listing,Single Family Residential,16396 Duluth Trl,Lakeville,MN,55044,1096215,5,5,Spirit of Brandtjen Farm,5341,12196,2022,12,205,95,https://www.redfin.com/MN/Lakeville/16396-Duluth-Trl-55044/home/175552652,NORTHSTARMLS,6159566,44.7111394,-93.1602704
MLS Listing,Condo/Co-op,14575 Burma Ave W #105,Rosemount,MN,55068,215000,2,2,Rosemount,1270,,1988,12,169,351,https://www.redfin.com/MN/Rosemount/14575-Burma-Ave-W-55068/unit-105/home/50754404,NORTHSTARMLS,6159508,44.7383641,-93.124975
MLS Listing,Townhouse,13852 Kaylemore Trl,Rosemount,MN,55068,397750,3,3,Ardan Place,1894,2178,2022,12,210,235,https://www.redfin.com/MN/Rosemount/13852-Kaylemore-TRL-55068/home/178479541,NORTHSTARMLS,6159581,44.75237217,-93.09053522
MLS Listing,Single Family Residential,22996 Nicolai Ave,Hastings,MN,55033,662000,3,4,Hastings,2427,68040,1959,12,273,,https://www.redfin.com/MN/Hastings/22996-Nicolai-Ave-55033/home/50001858,NORTHSTARMLS,6159548,44.6155061,-92.8122624
MLS Listing,Single Family Residential,2082 Emerald Ln,Eagan,MN,55122,346000,3,1,Eagan,1218,9147,1959,12,284,,https://www.redfin.com/MN/Eagan/2082-Emerald-Ln-55122/home/50171693,NORTHSTARMLS,6159487,44.8080271,-93.2128288
MLS Listing,Single Family Residential,20045 Rhoda Ave,Welch,MN,55089,750000,3,3,Welch,2539,645559,1986,12,295,,https://www.redfin.com/MN/Welch/20045-Rhoda-Ave-55089/home/50751845,NORTHSTARMLS,6158191,44.658677,-92.740701
MLS Listing,Single Family Residential,113 Shoshoni Trl,Apple Valley,MN,55124,427000,4,2,Apple Valley,2145,17424,1970,12,199,,https://www.redfin.com/MN/Apple-Valley/113-Shoshoni-Trl-55124/home/50149665,NORTHSTARMLS,6159300,44.7655697,-93.2339901
MLS Listing,Single Family Residential,12800 Country View Ln,Burnsville,MN,55337,435000,5,3,Burnsville,1938,12675,1975,12,224,,https://www.redfin.com/MN/Burnsville/12800-Country-View-Ln-55337/home/49940914,NORTHSTARMLS,6159250,44.7716159,-93.2510162
MLS Listing,Single Family Residential,269 Edgewood Ln,West Saint Paul,MN,55118,1685000,4,5,West Saint Paul,5412,24480,2018,13,311,,https://www.redfin.com/MN/West-St-Paul/269-Edgewood-Ln-55118/home/145319572,NORTHSTARMLS,6112742,44.8880648,-93.0967312
MLS Listing,Single Family Residential,17918 Eclipse Ave,Lakeville,MN,55044,556050,4,3,Pheasant Run,2160,8407,2022,13,257,,https://www.redfin.com/MN/Lakeville/17918-Eclipse-Ave-Unknown/home/178468588,NORTHSTARMLS,6159049,44.689031,-93.1692304
MLS Listing,Single Family Residential,5805 178th St W,Lakeville,MN,55044,533000,4,3,Knob Hill,2186,8712,2022,13,244,,https://www.redfin.com/MN/Lakeville/5805-178th-ST-W-55044/home/178468032,NORTHSTARMLS,6158968,44.69189183,-93.18303668
MLS Listing,Single Family Residential,5745 Upper 179th St W,Lakeville,MN,55044,616900,4,3,Knob Hill,2688,10193,2022,13,230,,https://www.redfin.com/MN/Lakeville/5745-Upper-179th-ST-W-55044/home/171040974,NORTHSTARMLS,6158991,44.6896681,-93.18350698
MLS Listing,Single Family Residential,689 Mcfaddens Trl,Eagan,MN,55123,649500,5,4,Eagan,3470,14549,2002,13,187,,https://www.redfin.com/MN/Eagan/689-McFaddens-Trl-55123/home/50770584,NORTHSTARMLS,6157696,44.7862585,-93.1196947
MLS Listing,Single Family Residential,16836 Jonquil Trl,Lakeville,MN,55044,430000,3,2,Lakeville,2433,8668,1987,14,177,,https://www.redfin.com/MN/Lakeville/16836-Jonquil-Trl-55044/home/50010512,NORTHSTARMLS,6158679,44.7033792,-93.2798582
MLS Listing,Single Family Residential,18528 Hexham Ln,Lakeville,MN,55044,569000,4,3,Lakeville,2202,12632,2022,14,258,,https://www.redfin.com/MN/Lakeville/18528-Hexham-Way-55044/home/178454997,NORTHSTARMLS,6158548,44.6617724,-93.2341122
MLS Listing,Single Family Residential,13541 Carrakay Way,Rosemount,MN,55068,469295,3,2,Oneka Place,1866,13503,2022,14,251,,https://www.redfin.com/MN/Rosemount/13541-Carrakay-WAY-55068/home/178453694,NORTHSTARMLS,6158004,44.75293459,-93.09117781
MLS Listing,Single Family Residential,5748 178th St W,Lakeville,MN,55024,576793,5,3,Knob Hill,2735,12632,2022,14,211,,https://www.redfin.com/MN/Farmington/5748-178th-St-W-55024/home/178453208,NORTHSTARMLS,6158386,44.6912872,-93.1881513
MLS Listing,Townhouse,7629 Carla Path,Inver Grove Heights,MN,55076,387660,3,3,South Grove,1932,1320,2022,14,201,208,https://www.redfin.com/MN/INVER-GROVE/7629-Carla-PATH-55076/home/178289550,NORTHSTARMLS,6158027,44.838845,-93.034345
MLS Listing,Townhouse,7625 Carla Path,Inver Grove Heights,MN,55076,397335,3,3,South Grove,2082,1320,2021,14,191,208,https://www.redfin.com/MN/INVER-GROVE/7625-Carla-PATH-55076/home/178320827,NORTHSTARMLS,6158274,44.838845,-93.034345
MLS Listing,Single Family Residential,14221 Aspen Ave,Rosemount,MN,55068,655832,4,4,Emerald Isle,3085,9365,2021,14,213,,https://www.redfin.com/MN/Rosemount/14221-Aspen-AVE-55068/home/177050079,NORTHSTARMLS,6158176,44.74390722,-93.07984752
MLS Listing,Single Family Residential,7698 204th St W,Lakeville,MN,55044,715414,5,4,Aspen Grove,3777,8712,2021,14,189,,https://www.redfin.com/MN/Lakeville/7698-204th-St-W-55044/home/173443855,NORTHSTARMLS,6158175,44.6525927,-93.2240593
MLS Listing,Condo/Co-op,2103 Silver Bell Rd #216,Eagan,MN,55122,220000,1,2,Eagan,1065,,2005,15,207,341,https://www.redfin.com/MN/Eagan/2103-Silver-Bell-Rd-55122/unit-216/home/49962064,NORTHSTARMLS,6158005,44.8214987,-93.2125736
MLS Listing,Single Family Residential,17858 Hamburg Ave,Lakeville,MN,55044,504000,2,2,Lakeville,1634,4356,2022,15,308,160,https://www.redfin.com/MN/Lakeville/17858-Hamburg-Ave-55044/home/172759924,NORTHSTARMLS,6157827,44.691936,-93.2254415
MLS Listing,Single Family Residential,6715 290th St W,Northfield,MN,55057,875000,5,4,Northfield,4910,217800,2000,15,178,,https://www.redfin.com/MN/Northfield/6715-290th-St-W-55057/home/50029216,NORTHSTARMLS,6157557,44.530011,-93.202395
MLS Listing,Townhouse,18114 Garland Path,Lakeville,MN,55044,440010,3,3,Lakeville,2069,3049,2022,16,213,185,https://www.redfin.com/MN/Lakeville/18114-Garland-PATH-55044/home/178429980,NORTHSTARMLS,6157437,44.68791549,-93.20758961
MLS Listing,Single Family Residential,5903 178th St,Lakeville,MN,55044,572700,3,3,Lakeville,2785,9147,2022,17,206,,https://www.redfin.com/MN/Lakeville/5903-178th-ST-55044/home/178438738,NORTHSTARMLS,6157372,44.69183756,-93.18716225
MLS Listing,Townhouse,4646 Blaylock Way #3502,Inver Grove Heights,MN,55076,314900,4,3,Inver Grove Heights,1874,,2004,19,168,309,https://www.redfin.com/MN/Inver-Grove-Heights/4646-Blaylock-Way-55076/unit-3502/home/50671499,NORTHSTARMLS,6149828,44.881936,-93.058195
MLS Listing,Single Family Residential,1017 3rd St W,Hastings,MN,55033,299900,4,2,Hastings,1856,9583,1961,19,162,,https://www.redfin.com/MN/Hastings/1017-3rd-St-W-55033/home/50724601,NORTHSTARMLS,6155407,44.7430583,-92.8706285
MLS Listing,Condo/Co-op,12848 Nicollet Ave #102,Burnsville,MN,55337,94900,1,1,Burnsville,650,,1970,19,146,328,https://www.redfin.com/MN/Burnsville/12848-Nicollet-Ave-55337/unit-102/home/50690042,NORTHSTARMLS,6156684,44.7690896,-93.280206
MLS Listing,Single Family Residential,13299 Bronze Pkwy,Rosemount,MN,55068,490000,4,3,Rosemount,2854,9147,2010,19,172,45,https://www.redfin.com/MN/Rosemount/13299-Bronze-Pkwy-55068/home/50018843,NORTHSTARMLS,6156558,44.7553476,-93.1225547
MLS Listing,Single Family Residential,1064 Humboldt Ave,West Saint Paul,MN,55118,369900,5,2,West Saint Paul,2300,8712,1873,19,161,,https://www.redfin.com/MN/West-St-Paul/1064-Humboldt-Ave-55118/home/50765172,NORTHSTARMLS,6156424,44.9142501,-93.0848204
MLS Listing,Townhouse,695 E Burnsville Pkwy #19,Burnsville,MN,55337,235000,3,2,Burnsville,1004,,1978,19,234,304,https://www.redfin.com/MN/Burnsville/695-E-Burnsville-Pkwy-55337/unit-19/home/49888853,NORTHSTARMLS,6156465,44.775524,-93.2653684
MLS Listing,Townhouse,20870 Goodhue Way,Lakeville,MN,55044,475000,3,3,Lakeville,2356,4748,2016,19,202,185,https://www.redfin.com/MN/Lakeville/20870-Goodhue-Way-55044/home/109277438,NORTHSTARMLS,6153098,44.6472356,-93.2204639
MLS Listing,Single Family Residential,13633 Washburn Ave S,Burnsville,MN,55337,357000,3,2,Burnsville,1093,16552,1963,19,327,,https://www.redfin.com/MN/Burnsville/13633-Washburn-Ave-S-55337/home/50063333,NORTHSTARMLS,6156431,44.7548427,-93.3161312
MLS Listing,Townhouse,14560 Twin Lakes Cir,Burnsville,MN,55306,415000,3,3,The Reserve at Twin Lakes,1877,1650,2022,19,221,220,https://www.redfin.com/MN/Burnsville/14560-Twin-Lakes-Cir-55306/home/177587825,NORTHSTARMLS,6156432,44.7379058,-93.2811319
MLS Listing,Townhouse,14564 Twin Lakes Cir,Burnsville,MN,55306,440000,3,3,The Reserve at Twin Lakes,1831,2068,2022,19,240,220,https://www.redfin.com/MN/Burnsville/14564-Twin-Lakes-Cir-55306/home/177587820,NORTHSTARMLS,6156428,44.737843,-93.2811451
MLS Listing,Townhouse,14572 Twin Lakes Cir,Burnsville,MN,55306,415000,3,3,The Reserve at Twin Lakes,1877,1650,2022,19,221,220,https://www.redfin.com/MN/Burnsville/14572-Twin-Lakes-Cir-55306/home/177587826,NORTHSTARMLS,6156426,44.7378862,-93.2806719
MLS Listing,Townhouse,14576 Twin Lakes Cir,Burnsville,MN,55306,440000,3,3,The Reserve at Twin Lakes,1831,2068,2022,19,240,220,https://www.redfin.com/MN/Burnsville/14576-Twin-Lakes-Cir-55306/home/177587823,NORTHSTARMLS,6156420,44.7378822,-93.28058
MLS Listing,Single Family Residential,16529 Joplin Path,Lakeville,MN,55044,425000,4,2,Lakeville,1760,8581,1989,19,241,,https://www.redfin.com/MN/Lakeville/16529-Joplin-Path-55044/home/50744640,NORTHSTARMLS,6156419,44.7093269,-93.2786987
MLS Listing,Townhouse,14592 Twin Lakes Cir,Burnsville,MN,55306,445000,3,3,The Reserve at Twin Lakes,1831,2068,2022,19,243,220,https://www.redfin.com/MN/Burnsville/14592-Twin-Lakes-Cir-55306/home/177587822,NORTHSTARMLS,6156417,44.7378715,-93.2802023
MLS Listing,Townhouse,1205 Hawthorne Ct,Northfield,MN,55057,235000,3,2,Northfield,1403,1742,2000,19,167,237,https://www.redfin.com/MN/Northfield/1205-Hawthorne-Ct-55057/home/50766699,NORTHSTARMLS,6154177,44.472257,-93.179819
MLS Listing,Townhouse,14600 Twin Lakes Cir,Burnsville,MN,55306,410000,3,3,The Reserve at Twin Lakes,1877,1650,2021,19,218,220,https://www.redfin.com/MN/Burnsville/14600-Twin-Lakes-Cir-55306/home/176360585,NORTHSTARMLS,6156414,44.7378642,-93.2800024
MLS Listing,Townhouse,18353 Gladden Ln,Lakeville,MN,55044,440000,3,3,Lakeville,1800,1785,2019,19,244,197,https://www.redfin.com/MN/Lakeville/18353-Gladden-Ln-55044/home/145319097,NORTHSTARMLS,6156391,44.6830657,-93.2195125
MLS Listing,Single Family Residential,13590 Blackbird Way,Rosemount,MN,55068,564500,4,3,Rosemount,2373,7881,2022,19,238,,https://www.redfin.com/MN/Rosemount/13590-Blackbird-WAY-55068/home/178417693,NORTHSTARMLS,6156251,44.75189461,-93.1110577
MLS Listing,Multi-Family (2-4 Unit),3XX South Street W St W Unit A,South Saint Paul,MN,55075,349000,2,2,South Street Flats,1158,3920,2022,19,301,210,https://www.redfin.com/MN/South-St-Paul/3XX-South-Street-W-ST-W-55075/unit-A/home/178417511,NORTHSTARMLS,6156204,44.86560472,-93.03878616
MLS Listing,Townhouse,4704 Anne Pt,Eagan,MN,55122,250000,2,2,Eagan,1112,3179,1980,20,225,210,https://www.redfin.com/MN/Eagan/4704-Anne-Pt-55122/home/50714732,NORTHSTARMLS,6156199,44.786297,-93.188359
MLS Listing,Single Family Residential,18157 Greyhaven Path,Lakeville,MN,55044,499000,4,3,Lakeville,1918,8842,2018,20,260,64,https://www.redfin.com/MN/Lakeville/18157-Greyhaven-Path-55044/home/113769253,NORTHSTARMLS,6156312,44.6867546,-93.2254892
MLS Listing,Single Family Residential,20595 Roe Ave,Welch,MN,55089,499000,2,2,Welch,1612,238403,1980,20,310,,https://www.redfin.com/MN/Welch/20595-Roe-Ave-55089/home/50751859,NORTHSTARMLS,6155047,44.649685,-92.738521
MLS Listing,Single Family Residential,5889 178th St W,Lakeville,MN,55024,559900,3,3,Lakeville,2331,8276,2022,20,240,,https://www.redfin.com/MN/Farmington/5889-178th-St-W-55024/home/178414662,NORTHSTARMLS,6156277,44.6916853,-93.1876731
MLS Listing,Single Family Residential,1770 Dodd Rd,Mendota Heights,MN,55118,1599500,4,3,Mendota Heights,4007,33541,2022,20,399,,https://www.redfin.com/MN/Mendota-Heights/1770-Dodd-Rd-55118/home/50747115,NORTHSTARMLS,6156239,44.8918733,-93.119205
MLS Listing,Single Family Residential,1019 Smith Ave S,West Saint Paul,MN,55118,309000,3,2,West Saint Paul,1485,6534,1932,20,208,,https://www.redfin.com/MN/West-St-Paul/1019-Smith-Ave-S-55118/home/50763024,NORTHSTARMLS,6156081,44.9154055,-93.1021076
MLS Listing,Single Family Residential,19774 Henning Ave,Lakeville,MN,55044,835900,5,5,Lakeville,4801,12196,2022,20,174,,https://www.redfin.com/MN/Lakeville/19774-Henning-Ave-55044/home/178412581,NORTHSTARMLS,6155996,44.6640107,-93.2327123
MLS Listing,Single Family Residential,17879 Hamburg Ave,Lakeville,MN,55044,584000,4,3,Lakeville,2545,4486,2021,21,229,160,https://www.redfin.com/MN/Lakeville/17879-Hamburg-Ave-55044/home/172759961,NORTHSTARMLS,6155637,44.6926676,-93.2262744
MLS Listing,Single Family Residential,778 Summerbrooke Ct,Eagan,MN,55123,724900,4,3,Eagan,2407,8712,2022,22,301,,https://www.redfin.com/MN/Eagan/778-Summerbrooke-Ct-55123/home/170460764,NORTHSTARMLS,6155028,44.8050078,-93.1250935
MLS Listing,Single Family Residential,12554 Ardmore Ave,Rosemount,MN,55068,567115,4,3,Meadow Ridge,2692,9147,2022,23,211,13,https://www.redfin.com/MN/Rosemount/12554-Ardmore-AVE-55068/home/176755278,NORTHSTARMLS,6154932,44.7642,-93.0877
MLS Listing,Single Family Residential,16409 Duluth Trl,Lakeville,MN,55044,947910,5,5,Spirit of Brandtjen Farm,4641,10018,2022,24,204,95,https://www.redfin.com/MN/Lakeville/16409-Duluth-Trl-55044/home/178364107,NORTHSTARMLS,6154854,44.7114024,-93.1614828
MLS Listing,Single Family Residential,17817 Graphite Ln,Lakeville,MN,55044,519498,2,2,Summer Creek,1773,4486,2022,24,293,160,https://www.redfin.com/MN/Lakeville/17817-Graphite-Ln-55044/home/172759942,NORTHSTARMLS,6154839,44.6931423,-93.2237198
MLS Listing,Single Family Residential,7446 Upper 164th St W,Lakeville,MN,55068,393600,5,3,Lakeville,2721,11325,1969,24,145,,https://www.redfin.com/MN/Rosemount/7446-Upper-164th-St-W-55068/home/49974034,NORTHSTARMLS,6154774,44.7103763,-93.2165382
MLS Listing,Single Family Residential,17849 Graphite Ln,Lakeville,MN,55044,489322,3,2,Summers Creek,1689,4486,2022,24,290,160,https://www.redfin.com/MN/Lakeville/17849-Graphite-Ln-55044/home/172759947,NORTHSTARMLS,6154776,44.6929536,-93.2245191
MLS Listing,Single Family Residential,5982 133rd Street Ct,Apple Valley,MN,55124,483000,4,3,Apple Valley,2170,35632,1977,25,223,,https://www.redfin.com/MN/Apple-Valley/5982-133rd-St-Ct-55124/home/50685203,NORTHSTARMLS,6154722,44.7527678,-93.1849875
MLS Listing,Single Family Residential,1910 Oak St,Hastings,MN,55033,312500,4,2,Hastings,1895,9104,1960,25,165,,https://www.redfin.com/MN/Hastings/1910-Oak-St-55033/home/50728486,NORTHSTARMLS,6154577,44.7258538,-92.8617823
MLS Listing,Single Family Residential,16393 Dryden Rd,Lakeville,MN,55044,992105,5,5,Spirit of Brandtjen Farm,4866,12196,2022,26,204,95,https://www.redfin.com/MN/Lakeville/16393-Dryden-Rd-55044/home/165266926,NORTHSTARMLS,6154244,44.7145028,-93.1608972
MLS Listing,Single Family Residential,13566 Blackbird Way,Rosemount,MN,55068,524900,3,2,Doolin Heights,1373,6969,2022,26,382,,https://www.redfin.com/MN/Rosemount/13566-N-Blackbird-WAY-55068/home/178325031,NORTHSTARMLS,6154118,44.73541,-93.131185
MLS Listing,Single Family Residential,909 Park Pl,Burnsville,MN,55337,415000,4,2,Burnsville,1914,12545,1980,26,217,,https://www.redfin.com/MN/Burnsville/909-Park-Pl-55337/home/50702828,NORTHSTARMLS,6154064,44.7467481,-93.2616826
MLS Listing,Townhouse,4426 Cinnamon Ridge Trl,Eagan,MN,55122,260000,4,2,Eagan,1538,9888,1987,26,169,120,https://www.redfin.com/MN/Eagan/4426-Cinnamon-Ridge-Trl-55122/home/50026787,NORTHSTARMLS,6153963,44.7955579,-93.2229742
MLS Listing,Townhouse,6578 154th St W #131,Apple Valley,MN,55124,270000,2,1,Apple Valley,1426,,2001,26,189,112,https://www.redfin.com/MN/Apple-Valley/6578-154th-St-W-55124/unit-131/home/50771861,NORTHSTARMLS,6153920,44.7256942,-93.2001726
MLS Listing,Single Family Residential,2808 Williams Dr,Burnsville,MN,55337,370000,3,3,Burnsville,1490,30230,1963,26,248,,https://www.redfin.com/MN/Burnsville/2808-Williams-Dr-55337/home/50690586,NORTHSTARMLS,6153901,44.7699469,-93.3162098
MLS Listing,Single Family Residential,18599 Hidden Way,Lakeville,MN,55044,599900,4,3,Redstone,2323,10454,2022,26,258,,https://www.redfin.com/MN/Lakeville/18599-Hidden-WAY-55044/home/178323990,NORTHSTARMLS,6153855,44.67966261,-93.23016299
MLS Listing,Single Family Residential,3592 76th Ln E,Inver Grove Heights,MN,55076,445045,2,2,South Grove,1742,6969,2022,27,255,,https://www.redfin.com/MN/Inver-Grove-Heights/3592-76th-Ln-E-55076/home/178481853,NORTHSTARMLS,6153639,44.838845,-93.034345
MLS Listing,Single Family Residential,18527 Hexham Ln,Lakeville,MN,55044,624900,3,3,Lakeville,2441,11761,2022,27,256,,https://www.redfin.com/MN/Lakeville/18527-Hexham-Way-55044/home/178317310,NORTHSTARMLS,6153668,44.6617724,-93.2341122
MLS Listing,Single Family Residential,7910 280th St W,Farmington,MN,55024,857000,5,4,Farmington,5026,175808,1991,28,171,,https://www.redfin.com/MN/Farmington/7910-280th-St-W-55024/home/50723539,NORTHSTARMLS,6153059,44.5431909,-93.2258818
MLS Listing,Single Family Residential,19790 Hamburg Ave,Lakeville,MN,55044,654900,3,3,Berres Ridge,2442,13503,2022,28,268,,https://www.redfin.com/MN/Lakeville/19790-Hamburg-Ave-55044/home/175118612,NORTHSTARMLS,6153277,44.659652,-93.2274926
MLS Listing,Single Family Residential,17944 Exeter Cir,Lakeville,MN,55024,659900,5,4,Lakeville,3207,12196,2022,28,206,,https://www.redfin.com/MN/Farmington/17944-Exeter-Ct-55024/home/178308446,NORTHSTARMLS,6153037,44.688108,-93.1861799
MLS Listing,Single Family Residential,8163 187th St W,Lakeville,MN,55044,521590,4,3,The Grove at Avonlea,2328,8712,2022,29,224,64,https://www.redfin.com/MN/Lakeville/8163-187th-St-W-55044/home/178119283,NORTHSTARMLS,6152877,44.6792761,-93.2309712
MLS Listing,Single Family Residential,18817 Hammond Dr,Lakeville,MN,55044,562685,4,3,The Grove at Avonlea,2185,8712,2022,29,258,64,https://www.redfin.com/MN/Lakeville/18817-Hammond-Dr-55044/home/178302329,NORTHSTARMLS,6152866,44.6777465,-93.2306976
MLS Listing,Single Family Residential,1413 Vince Trl,Eagan,MN,55121,784900,4,4,Eagan,2976,16117,2022,29,264,,https://www.redfin.com/MN/St-Paul/1413-Vince-Trl-55121/home/50677386,NORTHSTARMLS,6152545,44.8491981,-93.170043
MLS Listing,Single Family Residential,607 Watersedge Ter,Mendota Heights,MN,55120,895000,4,5,Mendota Heights,4460,17542,1991,29,201,,https://www.redfin.com/MN/Mendota-Heights/607-Watersedge-Ter-55120/home/50747445,NORTHSTARMLS,6152508,44.8701705,-93.1115466
MLS Listing,Single Family Residential,9862 189th St W,Lakeville,MN,55044,760927,4,4,Preserve of Lakeville,3272,12763,2022,30,233,,https://www.redfin.com/MN/Lakeville/9862-189th-St-W-55044/home/178295967,NORTHSTARMLS,6152411,44.6756013,-93.2653483
MLS Listing,Townhouse,2522 49th St E #7106,Inver Grove Heights,MN,55076,315000,2,2,Inver Grove Heights,1824,,2004,31,173,293,https://www.redfin.com/MN/Inver-Grove-Heights/2522-49th-St-E-55076/unit-7106/home/50671459,NORTHSTARMLS,6152277,44.876797,-93.051868
MLS Listing,Single Family Residential,2340 136th Ct W,Rosemount,MN,55068,899900,5,5,Doolin Heights,3959,10018,2022,32,227,,https://www.redfin.com/MN/Rosemount/2340-136th-St-W-55068/home/178288513,NORTHSTARMLS,6152149,44.7518959,-93.1522496
MLS Listing,Single Family Residential,4401 Slater Rd,Eagan,MN,55122,385000,3,2,Eagan,1540,8581,1985,32,250,,https://www.redfin.com/MN/Eagan/4401-Slater-Rd-55122/home/50015500,NORTHSTARMLS,6151720,44.796695,-93.2246058
MLS Listing,Single Family Residential,249 15th St,Farmington,MN,55024,489900,4,3,Sapphire Lake,2452,9583,2022,33,200,,https://www.redfin.com/MN/Farmington/249-15th-ST-Unknown/home/172071185,NORTHSTARMLS,6151667,44.64040908,-93.1250276
MLS Listing,Single Family Residential,1541 Spruce St,Farmington,MN,55024,613900,5,4,Sapphire Lake,3449,7840,2022,33,178,,https://www.redfin.com/MN/Farmington/1541-Spruce-St-55024/home/178271380,NORTHSTARMLS,6151657,44.639239,-93.122989
MLS Listing,Single Family Residential,225 15th St,Farmington,MN,55024,474900,5,3,Sapphire Lake,2707,10890,2022,33,175,,https://www.redfin.com/MN/Farmington/225-15th-St-55024/home/178270906,NORTHSTARMLS,6151635,44.640569,-93.1249904
MLS Listing,Single Family Residential,15255 Dupont Path,Apple Valley,MN,55124,463000,4,3,Apple Valley,2183,5270,1999,34,212,55,https://www.redfin.com/MN/Apple-Valley/15255-Dupont-Path-55124/home/49904979,NORTHSTARMLS,6151342,44.7282483,-93.1644944
MLS Listing,Single Family Residential,7075 182 St,Lakeville,MN,55044,690855,6,6,Glacier Creek,3910,9147,2022,34,177,,https://www.redfin.com/MN/Lakeville/7075-182nd-St-W-55044/home/178263540,NORTHSTARMLS,6151206,44.6851919,-93.2219601
MLS Listing,Single Family Residential,8718 Alvarado Trl,Inver Grove Heights,MN,55077,1995000,5,8,Inver Grove Heights,8887,274428,2005,34,224,,https://www.redfin.com/MN/Inver-Grove-Heights/8718-Alvarado-Trl-55077/home/50669609,NORTHSTARMLS,6141802,44.8233635,-93.0877175
MLS Listing,Single Family Residential,1460 142nd Ct E,Rosemount,MN,55068,679900,4,4,Rosemount,2680,13939,2022,35,254,,https://www.redfin.com/MN/Rosemount/1460-142nd-Ct-W-55068/home/178253599,NORTHSTARMLS,6150496,44.7426727,-93.0986576
MLS Listing,Single Family Residential,14341 Aspen Ave,Rosemount,MN,55068,545000,3,3,Rosemount,1968,10454,2020,35,277,,https://www.redfin.com/MN/Rosemount/14341-Aspen-AVE-55068/home/176210475,NORTHSTARMLS,6150481,44.74414242,-93.07703018
MLS Listing,Single Family Residential,1410 142nd Ct E,Rosemount,MN,55068,576200,4,3,Rosemount,2464,9147,2022,35,234,,https://www.redfin.com/MN/Rosemount/1410-142nd-Ct-W-55068/home/176353901,NORTHSTARMLS,6150366,44.7426727,-93.0986576
MLS Listing,Single Family Residential,1409 143rd St E,Rosemount,MN,55068,565000,4,3,Rosemount,2160,11194,2022,35,262,,https://www.redfin.com/MN/Rosemount/1409-143rd-St-E-55068/home/176994474,NORTHSTARMLS,6150362,44.7431657,-93.0818536
MLS Listing,Single Family Residential,17924 Greenwich Way,Lakeville,MN,55044,594900,2,2,Summers Creek,1796,4486,2022,36,331,160,https://www.redfin.com/MN/Lakeville/17924-Greenwich-Way-55044/home/178247692,NORTHSTARMLS,6150260,44.6906471,-93.2250393
MLS Listing,Townhouse,4840 Steeplechase Cir #11,Eagan,MN,55122,595000,3,3,Eagan,3046,,2007,38,195,505,https://www.redfin.com/MN/Eagan/4840-Steeplechase-Cir-55122/unit-11/home/49933504,NORTHSTARMLS,6149547,44.7798824,-93.1687884
MLS Listing,Townhouse,2107 Cedar Grove Trl #103,Eagan,MN,55122,340000,2,3,Eagan,1730,,2005,38,197,289,https://www.redfin.com/MN/Eagan/2107-Cedar-Grove-Trl-55122/unit-103/home/50673311,NORTHSTARMLS,6149571,44.8140686,-93.212397
MLS Listing,Single Family Residential,16219 Hawthorn Path,Lakeville,MN,55044,650000,5,4,Lakeville,4180,20647,2003,38,156,10,https://www.redfin.com/MN/Lakeville/16219-Hawthorn-Path-55044/home/49917256,NORTHSTARMLS,6149577,44.7140941,-93.2385848
MLS Listing,Single Family Residential,XXXX Fallbrooke Dr,Hastings,MN,55033,555900,4,4,Heritage Ridge,2196,13068,2022,39,253,36,https://www.redfin.com/MN/Hastings/Fallbrooke-Dr-55033/home/177015052,NORTHSTARMLS,6149521,44.72463024,-92.89396396
MLS Listing,Single Family Residential,1816 Fallbrooke Dr,Hastings,MN,55033,564900,3,3,Heritage Ridge,2658,7226,2021,39,213,172,https://www.redfin.com/MN/Hastings/1816-Fallbrooke-Dr-55033/home/174793557,NORTHSTARMLS,6149256,44.7248982,-92.8932015
MLS Listing,Single Family Residential,25 Sunny Side Ln,Sunfish Lake,MN,55118,2225000,6,6,Sunfish Lake,7952,153766,1990,39,280,,https://www.redfin.com/MN/St-Paul/25-Sunnyside-Ln-55118/home/50761063,NORTHSTARMLS,6149380,44.876422,-93.092212
MLS Listing,Single Family Residential,1811 Fallbrooke Dr,Hastings,MN,55033,634900,5,5,Heritage Ridge,3352,8668,2021,39,189,36,https://www.redfin.com/MN/Hastings/1811-Fallbrooke-Dr-55033/home/174787894,NORTHSTARMLS,6149246,44.7243295,-92.8932116
MLS Listing,Townhouse,7605 Cody Ln E,Inver Grove Heights,MN,55076,385650,3,3,South Grove,1932,,2022,40,200,208,https://www.redfin.com/MN/Inver-Grove-Heights/7605-Cody-Ln-55076/home/178311986,NORTHSTARMLS,6148648,44.838845,-93.034345
MLS Listing,Single Family Residential,3564 76th Ln E,Inver Grove Heights,MN,55076,448695,2,2,South Grove,1734,6534,2022,40,259,,https://www.redfin.com/MN/Inver-Grove-Heights/3564-76th-Ln-E-55076/home/178481854,NORTHSTARMLS,6148500,44.838845,-93.034345
MLS Listing,Single Family Residential,19715 Java Path,Lakeville,MN,55044,435000,4,2,Lakeville,2012,7753,1972,40,216,,https://www.redfin.com/MN/Lakeville/19715-Java-Path-55044/home/49896256,NORTHSTARMLS,6148705,44.663944,-93.2744539
MLS Listing,Single Family Residential,13997 Ashford Path,Rosemount,MN,55068,590000,5,4,Rosemount,2871,11064,2017,40,206,,https://www.redfin.com/MN/Rosemount/13997-Ashford-Path-55068/home/113771076,NORTHSTARMLS,6148674,44.7477781,-93.0866213
MLS Listing,Single Family Residential,14909 Oak Ridge Ct W,Burnsville,MN,55306,515000,3,4,Burnsville,2994,10846,1995,40,172,,https://www.redfin.com/MN/Burnsville/14909-Oak-Ridge-Ct-W-55306/home/50055957,NORTHSTARMLS,6148662,44.7333493,-93.2918872
MLS Listing,Single Family Residential,16978 Galleon Cir,Lakeville,MN,55068,579495,4,3,Lakeville,2214,13068,2022,41,262,,https://www.redfin.com/MN/Rosemount/16978-Galleon-Cir-55068/home/50093092,NORTHSTARMLS,6147113,44.7034032,-93.2059602
MLS Listing,Single Family Residential,17829 Embers Ave,Lakeville,MN,55044,499900,5,3,Pheasant Run 7th,2528,8712,2022,41,198,,https://www.redfin.com/MN/Lakeville/17829-Embers-AVE-55044/home/178205699,NORTHSTARMLS,6148253,44.69245124,-93.17182457
MLS Listing,Single Family Residential,4009 Haven Woods Ct,Eagan,MN,55123,1600000,4,3,Wood Haven,3730,15246,2022,42,429,,https://www.redfin.com/MN/Eagan/4009-Woods-Ct-55122/home/174684325,NORTHSTARMLS,6146687,44.81250837,-93.11526319
MLS Listing,Single Family Residential,13642 Applewood Trl,Rosemount,MN,55068,460110,3,2,Caramore Crossing,1749,7405,2021,43,263,165,https://www.redfin.com/MN/Rosemount/13642-Applewood-TRL-55068/home/178115281,NORTHSTARMLS,6147653,44.75406746,-93.08902913
MLS Listing,Single Family Residential,18750 Hancock Ave,Lakeville,MN,55044,493200,4,4,The Grove at Avonlea,1870,8712,2021,43,264,64,https://www.redfin.com/MN/Lakeville/18766-Hancock-AVE-55044/home/176557466,NORTHSTARMLS,6147643,44.67862338,-93.2307412
MLS Listing,Single Family Residential,,Lakeville,MN,55044,547810,4,4,,2645,9147,2021,43,207,64,https://www.redfin.com/MN/Lakeville/Undisclosed-address-55044/home/178114146,NORTHSTARMLS,6147189,44.67882461,-93.22806746
MLS Listing,Single Family Residential,13401 Ardroe Ave,Rosemount,MN,55068,514274,2,2,Caramore Crossing,1749,12632,2021,44,294,165,https://www.redfin.com/MN/Rosemount/13401-Ardroe-Ave-55068/home/176344280,NORTHSTARMLS,6147208,44.7618419,-93.0888872
MLS Listing,Condo/Co-op,7070 153rd St W #313,Apple Valley,MN,55124,62705,1,2,Apple Valley,1069,,2018,46,59,1875,https://www.redfin.com/MN/Apple-Valley/7070-153rd-St-W-55124/unit-313/home/172752012,NORTHSTARMLS,6146840,44.7267837,-93.208992
MLS Listing,Single Family Residential,19814 Hamburg Ave,Lakeville,MN,55044,639900,3,3,Berres Ridge,2438,11325,2022,46,262,,https://www.redfin.com/MN/Lakeville/19814-Hamburg-Ave-55044/home/177992616,NORTHSTARMLS,6146844,44.6870702,-93.2270188
MLS Listing,Townhouse,1591 Four Oaks Rd,Eagan,MN,55121,290000,2,2,Eagan,1515,1742,1982,46,191,255,https://www.redfin.com/MN/Eagan/1591-Four-Oaks-Rd-55121/home/50708454,NORTHSTARMLS,6146465,44.843221,-93.179812
MLS Listing,Single Family Residential,1301 Orchard Dr,Burnsville,MN,55306,361000,3,2,Burnsville,1805,15986,1963,47,200,,https://www.redfin.com/MN/Burnsville/1301-Orchard-Dr-55306/home/50084826,NORTHSTARMLS,6146551,44.7294462,-93.2958779
MLS Listing,Single Family Residential,13634 Applewood Trl,Rosemount,MN,55068,493575,3,2,Rosemount,1866,9583,2021,47,265,165,https://www.redfin.com/MN/Rosemount/13634-Applewood-TRL-55068/home/177961881,NORTHSTARMLS,6146487,44.75456254,-93.08845689
MLS Listing,Condo/Co-op,12812 Nicollet Ave #302,Burnsville,MN,55337,115000,2,1,Burnsville,950,,1970,47,121,450,https://www.redfin.com/MN/Burnsville/12812-Nicollet-Ave-55337/unit-302/home/50690126,NORTHSTARMLS,6134997,44.7690896,-93.280206
MLS Listing,Townhouse,13582 Bronze Pkwy,Rosemount,MN,55068,275000,2,2,Rosemount,1082,784,2010,47,254,210,https://www.redfin.com/MN/Rosemount/13582-Bronze-Pkwy-55068/home/50084297,NORTHSTARMLS,6146391,44.7531169,-93.120917
MLS Listing,Single Family Residential,18397 Everest Path,Farmington,MN,55024,475000,4,3,Farmington,2574,12850,1998,47,185,,https://www.redfin.com/MN/Farmington/18397-Everest-Path-55024/home/50722335,NORTHSTARMLS,6146378,44.6820733,-93.1865763
MLS Listing,Single Family Residential,19852 Iberis Ave,Lakeville,MN,55044,561000,4,3,Lakeville,2727,9801,2013,47,206,,https://www.redfin.com/MN/Lakeville/19852-Iberis-Ave-55044/home/50226771,NORTHSTARMLS,6146353,44.6623356,-93.2492092
MLS Listing,Single Family Residential,7830 Adler Trl,Inver Grove Heights,MN,55076,547000,4,4,Inver Grove Heights,2405,,2022,47,227,66,https://www.redfin.com/MN/INVER-GROVE/7830-Adler-TRL-55076/home/177958535,NORTHSTARMLS,6146265,44.83543063,-93.0767363
MLS Listing,Single Family Residential,17862 Hamburg Ave,Lakeville,MN,55044,495000,2,2,Lakeville,1592,,2022,48,311,160,https://www.redfin.com/MN/Lakeville/17862-Hamburg-Ave-55044/home/172759923,NORTHSTARMLS,6146109,44.6920259,-93.2256462
MLS Listing,Single Family Residential,19231 Colonial Trl,Farmington,MN,55024,549490,3,3,North Creek,2938,8276,2021,48,187,166,https://www.redfin.com/MN/Farmington/19231-Colonial-TRL-Unknown/home/174667906,NORTHSTARMLS,6146113,44.67108381,-93.14026057
MLS Listing,Townhouse,5048 217th St W,Farmington,MN,55024,470000,2,2,Vita Attiva at South Creek,1481,6534,2022,50,317,269,https://www.redfin.com/MN/Farmington/5048-217th-ST-W-55024/home/177945298,NORTHSTARMLS,6145205,44.63657854,-93.16887358
MLS Listing,Townhouse,5016 217th St W,Farmington,MN,55024,535000,3,3,Vita Attiva At South Creek,1830,6534,2022,50,292,269,https://www.redfin.com/MN/Farmington/5016-217th-ST-W-55024/home/177945297,NORTHSTARMLS,6145276,44.63662946,-93.16949392
MLS Listing,Townhouse,5032 217th St W,Farmington,MN,55024,510000,2,2,Vita Attiva at South Creek,1503,6534,2022,50,339,269,https://www.redfin.com/MN/Farmington/5032-217th-ST-W-55024/home/177945295,NORTHSTARMLS,6145228,44.63654018,-93.16877151
MLS Listing,Townhouse,4908 Steeplechase Ct #38,Eagan,MN,55122,617000,4,4,Eagan,4050,,2006,50,152,442,https://www.redfin.com/MN/Eagan/4908-Steeplechase-Ct-55122/unit-38/home/49923385,NORTHSTARMLS,6145450,44.78019,-93.16994
MLS Listing,Single Family Residential,19146 Cottage Rd,Farmington,MN,55024,476925,3,2,North Creek,1890,6534,2022,50,252,166,https://www.redfin.com/MN/Farmington/19146-Cottage-Rd-55024/home/177344240,NORTHSTARMLS,6143392,44.672977,-93.140881
MLS Listing,Condo/Co-op,221 Grand Ave W #109,South Saint Paul,MN,55075,119000,2,1,South Saint Paul,910,,1986,50,131,344,https://www.redfin.com/MN/South-St-Paul/221-Grand-Ave-W-55075/unit-109/home/50672453,NORTHSTARMLS,6145359,44.8923073,-93.0365745
MLS Listing,Single Family Residential,5846 178th St W,Lakeville,MN,55024,589900,3,3,Lakeville,2100,8407,2022,50,281,,https://www.redfin.com/MN/Farmington/5846-178th-St-W-55024/home/177940140,NORTHSTARMLS,6145056,44.6912872,-93.1881513
MLS Listing,Single Family Residential,18237 Glacier Way,Lakeville,MN,55044,788619,5,5,Glacier Creek,3921,10018,2021,51,201,,https://www.redfin.com/MN/Lakeville/18237-Glacier-WAY-55044/home/177938528,NORTHSTARMLS,6144947,44.68528345,-93.21051008
MLS Listing,Single Family Residential,7387 Degrio Way,Inver Grove Heights,MN,55076,369940,2,1,Ruby Meadows,1106,2265,2022,52,334,,https://www.redfin.com/MN/Inver-Grove-Heights/7387-Degrio-Way-55076/home/175552169,NORTHSTARMLS,6138726,44.842167,-93.023013
MLS Listing,Single Family Residential,19808 Hamburg Ave,Lakeville,MN,55044,711446,5,4,Berres Ridge,3716,12196,2022,52,191,,https://www.redfin.com/MN/Lakeville/19808-Hamburg-Ave-55044/home/177934942,NORTHSTARMLS,6144801,44.6870702,-93.2270188
MLS Listing,Multi-Family (2-4 Unit),1020 5th Ave S Unit B,South Saint Paul,MN,55075,379900,4,3,South Saint Paul,2184,9888,2021,53,174,,https://www.redfin.com/MN/South-St-Paul/1020-5th-Ave-S-55075/unit-B/home/175223009,NORTHSTARMLS,6144540,44.873747,-93.040261
MLS Listing,Multi-Family (2-4 Unit),1020 5th Ave S Unit A,South Saint Paul,MN,55075,379900,4,3,South Saint Paul,2184,9888,2021,53,174,,https://www.redfin.com/MN/South-St-Paul/1020-5th-Ave-S-55075/unit-A/home/174610700,NORTHSTARMLS,6144352,44.873747,-93.040261
MLS Listing,Single Family Residential,8680 Hunters Way,Apple Valley,MN,55124,536000,4,3,Apple Valley,3575,22215,1981,54,150,,https://www.redfin.com/MN/Apple-Valley/8680-Hunters-Way-55124/home/50684537,NORTHSTARMLS,6144113,44.7592855,-93.239547
MLS Listing,Single Family Residential,311 Timberland Dr,Burnsville,MN,55337,396000,3,3,Burnsville,1400,22172,1958,54,283,,https://www.redfin.com/MN/Burnsville/311-Timberland-Dr-55337/home/50700509,NORTHSTARMLS,6144021,44.7611889,-93.28316
MLS Listing,Condo/Co-op,12444 Pilot Knob Rd #314,Apple Valley,MN,55124,299320,2,2,Apple Valley,1641,,2020,55,182,818,https://www.redfin.com/MN/Apple-Valley/12444-Pilot-Knob-Rd-55124/unit-314/home/177297193,NORTHSTARMLS,6143897,44.768847,-93.165075
MLS Listing,Townhouse,7613 Cody Ln,Inver Grove Heights,MN,55076,398950,3,3,South Grove,2082,,2021,55,192,208,https://www.redfin.com/MN/Inver-Grove-Heights/7613-Cody-Ln-55076/home/178309910,NORTHSTARMLS,6143731,44.838845,-93.034345
MLS Listing,Townhouse,18642 Kalmar Path,Lakeville,MN,55044,319995,2,2,Lakeville,1493,2874,2000,57,214,353,https://www.redfin.com/MN/Lakeville/18642-Kalmar-Path-55044/home/50767737,NORTHSTARMLS,6142932,44.6796642,-93.2860492
MLS Listing,Single Family Residential,17741 Everest Ave,Lakeville,MN,55044,429900,2,2,Knob Hill Association,1500,2787,2021,59,287,145,https://www.redfin.com/MN/Lakeville/17741-Everest-AVE-55044/home/176996292,NORTHSTARMLS,6142738,44.69176352,-93.17999149
MLS Listing,Single Family Residential,17904 Evening Ln,Lakeville,MN,55024,599900,5,4,Knob Hill,2960,13068,2019,59,203,,https://www.redfin.com/MN/Lakeville/17904-Evening-Ln-55044/home/170485974,NORTHSTARMLS,6142726,44.6904048,-93.181457
MLS Listing,Single Family Residential,14209 Addison Ave,Rosemount,MN,55068,586808,5,4,Emerald Isle,2929,9147,2021,59,200,,https://www.redfin.com/MN/Rosemount/14209-Addison-Ave-55068/home/175339079,NORTHSTARMLS,6142720,44.7455154,-93.0781303
MLS Listing,Single Family Residential,19342 Clearwater Loop,Farmington,MN,55024,464490,3,3,North Creek,1982,8276,2021,62,234,35,https://www.redfin.com/MN/Farmington/19342-Clearwater-Loop-55024/home/176720485,NORTHSTARMLS,6141671,44.6696426,-93.13837647
MLS Listing,Single Family Residential,17866 Hamburg Ave,Lakeville,MN,55044,537000,3,3,Lakeville,2432,4486,2022,63,221,160,https://www.redfin.com/MN/Lakeville/17866-Hamburg-Ave-55044/home/172759922,NORTHSTARMLS,6141309,44.6920758,-93.2258229
MLS Listing,Single Family Residential,7805 Ava Trl,Inver Grove Heights,MN,55077,537000,4,3,Inver Grove Heights,2365,,2022,63,227,66,https://www.redfin.com/MN/INVER-GROVE/7805-Ava-TRL-55077/home/177864884,NORTHSTARMLS,6141223,44.83515674,-93.07691869
MLS Listing,Single Family Residential,8140 198th St W,Lakeville,MN,55044,838068,4,3,Lakeville,3620,13939,2022,64,232,,https://www.redfin.com/MN/Lakeville/8140-198th-St-W-55044/home/173924029,NORTHSTARMLS,6140496,44.6628851,-93.2595017
MLS Listing,Single Family Residential,8122 198th St W,Lakeville,MN,55044,737306,4,3,Lakeville,2900,17424,2022,64,254,,https://www.redfin.com/MN/Lakeville/8122-198th-St-W-55044/home/177860539,NORTHSTARMLS,6140495,44.6628851,-93.2595017
MLS Listing,Multi-Family (2-4 Unit),3871 Gold Pt Unit B,Eagan,MN,55122,239000,2,1,Eagan,1572,,1898,66,152,275,https://www.redfin.com/MN/Eagan/3871-Gold-Pt-55122/unit-B/home/177795299,NORTHSTARMLS,6140558,44.816667,-93.205325
MLS Listing,Townhouse,16102 Duvane Way,Lakeville,MN,55044,488805,3,2,Spirit of Brandtjen Farms,1714,2613,2021,68,285,272,https://www.redfin.com/MN/Lakeville/16102-Duvane-Way-55044/home/175008642,NORTHSTARMLS,6138934,44.7160991,-93.1663519
MLS Listing,Townhouse,5001 162nd St W,Lakeville,MN,55044,527400,3,3,Spirit of Brandtjen Farm,2025,1306,2022,68,260,492,https://www.redfin.com/MN/Lakeville/5001-162nd-St-W-55044/home/172759776,NORTHSTARMLS,6138927,44.7149817,-93.1667219
MLS Listing,Townhouse,4995 162nd St W,Lakeville,MN,55044,562650,2,3,Spirit of Brandtjen Farm,2045,1524,2022,68,275,492,https://www.redfin.com/MN/Lakeville/4995-162nd-St-W-55044/home/172759777,NORTHSTARMLS,6138925,44.7149855,-93.1666307
MLS Listing,Condo/Co-op,500 Greenhaven Dr #223,Burnsville,MN,55306,219999,1,1,Burnsville,1200,1200,2004,68,183,447,https://www.redfin.com/MN/Burnsville/500-Greenhaven-Dr-55306/unit-223/home/50672859,NORTHSTARMLS,6139736,44.7288849,-93.2854792
MLS Listing,Single Family Residential,8286 183rd St W,Lakeville,MN,55044,474615,2,2,Pinnacle Reserve,1749,8712,2021,69,271,170,https://www.redfin.com/MN/Lakeville/8286-183rd-St-W-55044/home/177816556,NORTHSTARMLS,6139692,44.6826011,-93.2313713
MLS Listing,Single Family Residential,17942 Gresford Ln,Lakeville,MN,55044,649900,4,3,Summers Creek,3136,4486,2021,71,207,160,https://www.redfin.com/MN/Lakeville/17942-Gresford-Ln-55044/home/172759900,NORTHSTARMLS,6139020,44.6905616,-93.2262548
MLS Listing,Single Family Residential,13650 Applewood Trl,Rosemount,MN,55068,444975,2,2,Caramore Crossing,1485,7405,2021,72,300,165,https://www.redfin.com/MN/Rosemount/13650-Applewood-TRL-55068/home/176587102,NORTHSTARMLS,6138676,44.75441892,-93.09089596
MLS Listing,Single Family Residential,13566 Birdsong Path,Rosemount,MN,55068,769000,5,4,Rosemount,3640,8712,2022,72,211,,https://www.redfin.com/MN/Rosemount/13566-Birdsong-Pth-55068/home/177474869,NORTHSTARMLS,6138645,44.7523371,-93.1106628
MLS Listing,Townhouse,7637 Cody Ln E,Inver Grove Heights,MN,55076,461827,3,3,South Grove,2336,,2021,76,198,208,https://www.redfin.com/MN/Inver-Grove-Heights/7637-Cody-Ct-55076/home/177733210,NORTHSTARMLS,6138092,44.83924896,-93.03390637
MLS Listing,Single Family Residential,1766 Brandlewood Ct,Hastings,MN,55033,550000,5,3,Hastings,2662,15681,2022,77,207,,https://www.redfin.com/MN/Hastings/1766-Brandlewood-CT-55033/home/176875369,NORTHSTARMLS,6137693,44.72112178,-92.89259595
MLS Listing,Single Family Residential,17928 Greenwich Way,Lakeville,MN,55044,574900,4,3,Summers Creek,2766,4486,2021,78,208,160,https://www.redfin.com/MN/Lakeville/17928-Greenwich-Way-55044/home/177712790,NORTHSTARMLS,6137539,44.6909037,-93.2261221
MLS Listing,Single Family Residential,11760 Azure Ln,Inver Grove Heights,MN,55077,1050000,5,4,AMBERWOOD,4057,13939,2022,79,259,21,https://www.redfin.com/MN/Inver-Grove-Heights/11760-Azure-Ln-55068/home/177707262,NORTHSTARMLS,6137433,44.7781911,-93.1036164
MLS Listing,Condo/Co-op,12820 Nicollet Ave #101,Burnsville,MN,55337,112000,2,1,Burnsville,900,,1970,82,124,450,https://www.redfin.com/MN/Burnsville/12820-Nicollet-Ave-55337/unit-101/home/50690114,NORTHSTARMLS,6137328,44.7690896,-93.280206
MLS Listing,Single Family Residential,22426 Cambrian Ct,Farmington,MN,55024,403900,2,1,Farmington,1027,10018,2021,91,393,,https://www.redfin.com/MN/Farmington/22426-Cambrian-Ct-55024/home/145318943,NORTHSTARMLS,6135364,44.623567,-93.131271
MLS Listing,Townhouse,17749 Everest Ave,Lakeville,MN,55044,491900,3,2,Knob Hill Association,1765,2787,2021,93,279,145,https://www.redfin.com/MN/Lakeville/17749-Everest-AVE-55044/home/177614529,NORTHSTARMLS,6134794,44.69142813,-93.17979347
MLS Listing,Townhouse,17745 Everest Ave,Lakeville,MN,55044,482500,2,2,Knob Hill Association,1644,2787,2021,93,293,145,https://www.redfin.com/MN/Lakeville/17745-Everest-AVE-55044/home/177614504,NORTHSTARMLS,6134785,44.69142813,-93.17979347
MLS Listing,Townhouse,17746 Everest Ave,Lakeville,MN,55044,467900,2,2,Knob Hill Association,1500,2787,2021,93,312,145,https://www.redfin.com/MN/Lakeville/17746-Everest-55044/home/176358694,NORTHSTARMLS,6134781,44.69142813,-93.17979347
MLS Listing,Condo/Co-op,600 Greenhaven Dr #107,Burnsville,MN,55306,255000,2,2,Burnsville,1269,,2002,95,201,794,https://www.redfin.com/MN/Burnsville/600-Greenhaven-Dr-55306/unit-107/home/50772168,NORTHSTARMLS,6129931,44.7291506,-93.2864227
MLS Listing,Single Family Residential,2809 213th St,Farmington,MN,55024,459900,3,2,Sapphire Lakes,1432,7405,2021,95,321,,https://www.redfin.com/MN/Farmington/2809-213th-St-W-55024/home/174928095,NORTHSTARMLS,6134468,44.6414187,-93.1270284
MLS Listing,Single Family Residential,6182 S Robert Trl,Inver Grove Heights,MN,55077,1800000,3,3,Inver Grove Heights,3524,683064,1959,98,511,,https://www.redfin.com/MN/Inver-Grove-Heights/6182-S-Robert-Trl-55077/home/50728914,NORTHSTARMLS,6133486,44.858636,-93.083039
MLS Listing,Single Family Residential,13621 Applewood Trl,Rosemount,MN,55068,472470,3,2,Caramore Crossing,1801,8276,2021,101,262,165,https://www.redfin.com/MN/Rosemount/13621-Applewood-TRL-55068/home/177499020,NORTHSTARMLS,6132920,44.75431328,-93.08871575
MLS Listing,Single Family Residential,13627 Applewood Trl,Rosemount,MN,55068,501180,3,2,Rosemount,1866,9583,2021,101,269,165,https://www.redfin.com/MN/Rosemount/13627-Applewood-TRL-55068/home/177498658,NORTHSTARMLS,6132914,44.75431874,-93.09103181
MLS Listing,Single Family Residential,10601 Amery Cir,Inver Grove Heights,MN,55077,649000,4,3,Inver Grove Heights,3000,12632,1999,102,216,16,https://www.redfin.com/MN/Inver-Grove-Heights/10601-Amery-Cir-55077/home/50735272,NORTHSTARMLS,6132828,44.7958037,-93.1007369
MLS Listing,Single Family Residential,2653 213th St W,Farmington,MN,55024,489900,4,3,Farmington,2568,7840,2022,103,191,,https://www.redfin.com/MN/Farmington/2653-213th-St-W-55024/home/177477491,NORTHSTARMLS,6132270,44.6410286,-93.1245093
MLS Listing,Townhouse,7633 Cody Ln,Inver Grove Heights,MN,55076,399185,3,3,South Grove,2082,,2021,104,192,208,https://www.redfin.com/MN/Inver-Grove-Heights/7633-Cody-Ln-55076/home/178441350,NORTHSTARMLS,6131543,44.838845,-93.034345
MLS Listing,Single Family Residential,19354 Clearwater Loop,Farmington,MN,55024,512990,4,3,North Creek,2645,8276,2021,106,194,35,https://www.redfin.com/MN/Farmington/19354-Clearwater-Loop-55024/home/176994480,NORTHSTARMLS,6131121,44.6706996,-93.1387624
MLS Listing,Single Family Residential,19115 N Crystal Ter,Farmington,MN,55024,431490,2,2,North Creek,1734,9147,2020,106,249,166,https://www.redfin.com/MN/Farmington/19115-Crystal-Ter-55024/home/177350639,NORTHSTARMLS,6131112,44.67170183,-93.14455748
MLS Listing,Townhouse,1072 36th St W,Hastings,MN,55033,519900,2,2,Riverwood 12th,1519,6054,2021,106,342,150,https://www.redfin.com/MN/Hastings/1072-36th-St-W-55033/home/56509037,NORTHSTARMLS,6126188,44.711238,-92.8694682
MLS Listing,Townhouse,14141 Addison Ave,Rosemount,MN,55068,351690,3,3,Highlands of Falmoor Glen,1769,2178,2021,112,199,225,https://www.redfin.com/MN/Rosemount/14141-Addison-Ave-55068/home/172762142,NORTHSTARMLS,6130351,44.7447167,-93.0814684
MLS Listing,Townhouse,14151 Addison Ave,Rosemount,MN,55068,371090,3,3,Highlands of Falmoor Glen,1792,2178,2021,112,207,225,https://www.redfin.com/MN/Rosemount/14151-Addison-Ave-55068/home/172762143,NORTHSTARMLS,6130353,44.7447148,-93.0813236
MLS Listing,Single Family Residential,6344 Apple Ct,Inver Grove Heights,MN,55077,739500,4,3,Enclave at Settler's Ridge,2609,8712,2022,113,283,70,https://www.redfin.com/MN/INVER-GROVE/6344-Apple-CT-55077/home/177295124,NORTHSTARMLS,6129581,44.8547,-93.0899
MLS Listing,Single Family Residential,6332 Apple Ct,Inver Grove Heights,MN,55077,792540,5,4,Enclave at Settler's Ridge,2976,8712,2022,113,266,70,https://www.redfin.com/MN/INVER-GROVE/6332-Apple-CT-55077/home/177127805,NORTHSTARMLS,6129586,44.8547,-93.0899
MLS Listing,Single Family Residential,14205 Addison Ave,Rosemount,MN,55068,699000,5,5,Emerald Isle,3925,12196,2021,113,178,,https://www.redfin.com/MN/Rosemount/14205-Addison-Ave-55068/home/177295105,NORTHSTARMLS,6129629,44.7450196,-93.0804786
MLS Listing,Single Family Residential,8480 208th St W,Lakeville,MN,55044,446000,5,2,Lakeville,2730,14853,1982,115,163,,https://www.redfin.com/MN/Lakeville/8480-208th-St-W-55044/home/50674405,NORTHSTARMLS,6129353,44.6472261,-93.2370532
MLS Listing,Single Family Residential,2293 136th St,Rosemount,MN,55068,737700,4,4,Rosemount,2962,8712,2022,119,249,,https://www.redfin.com/MN/Rosemount/2293-136th-St-W-55068/home/177209246,NORTHSTARMLS,6127814,44.7518139,-93.1312279
MLS Listing,Single Family Residential,2677 213th St,Farmington,MN,55024,489900,3,2,Sapphire Lake,1699,10454,2021,125,288,,https://www.redfin.com/MN/Farmington/2677-213th-St-W-55024/home/177155341,NORTHSTARMLS,6125957,44.6410286,-93.1245093
MLS Listing,Single Family Residential,18543 Hexham Ln,Lakeville,MN,55044,605000,3,3,Lakeville,2100,8712,2021,126,288,,https://www.redfin.com/MN/Lakeville/18543-Hexham-Way-55044/home/177153469,NORTHSTARMLS,6125853,44.6617732,-93.2341118
MLS Listing,Single Family Residential,781 Wentworth Ave,Mendota Heights,MN,55118,2500000,4,4,Mendota Heights,5033,25264,2022,132,497,,https://www.redfin.com/MN/Mendota-Heights/781-Wentworth-Ave-W-55118/home/177871295,NORTHSTARMLS,6123662,44.8986005,-93.125251
MLS Listing,Single Family Residential,17984 Gresford Ln,Lakeville,MN,55044,644900,5,3,Summers Creek,3611,4486,2022,134,179,160,https://www.redfin.com/MN/Lakeville/17984-Gresford-Ln-55044/home/172759907,NORTHSTARMLS,6122844,44.6896154,-93.2257124
MLS Listing,Single Family Residential,18215 Hideaway Trl,Lakeville,MN,55044,487490,2,2,Pinnacle Reserve,1866,11325,2020,137,261,165,https://www.redfin.com/MN/Lakeville/18215-Hideaway-Trl-55044/home/171447891,NORTHSTARMLS,6118056,44.6843969,-93.2363267
MLS Listing,Single Family Residential,7418 Agate Trl,Inver Grove Heights,MN,55077,799000,5,4,Inver Grove Heights,3843,8712,2021,138,208,,https://www.redfin.com/MN/Inver-Grove-Heights/7418-Agate-Trl-55077/home/176988852,NORTHSTARMLS,6121261,44.8516986,-93.0896198
MLS Listing,Single Family Residential,1399 Dodd Rd,Mendota Heights,MN,55118,525000,4,2,Mendota Heights,2869,17424,1940,138,183,,https://www.redfin.com/MN/Mendota-Heights/1399-Dodd-Rd-55118/home/50749340,NORTHSTARMLS,6121216,44.9037527,-93.114269
MLS Listing,Single Family Residential,7801 Ava Trl,Inver Grove Heights,MN,55077,499900,3,3,Scenic Hills,1645,4791,2021,139,304,66,https://www.redfin.com/MN/INVER-GROVE-HEIGHTS/7801-AUSTIN-WAY-55077/home/172756895,NORTHSTARMLS,6120912,44.836249,-93.078177
MLS Listing,Single Family Residential,7842 Adler Trl,Inver Grove Heights,MN,55077,539900,2,2,Scenic Hills,1593,7840,2021,139,339,66,https://www.redfin.com/MN/INVER-GROVE-HEIGHTS/7842-ALDER-TRL-55077/home/172756934,NORTHSTARMLS,6120562,44.835064,-93.076199
MLS Listing,Condo/Co-op,4130 Rahn Rd #122,Eagan,MN,55122,124900,2,1,Eagan,900,,1972,140,139,380,https://www.redfin.com/MN/Eagan/4130-Rahn-Rd-55122/unit-122/home/50673231,NORTHSTARMLS,6120459,44.806893,-93.2057051
MLS Listing,Single Family Residential,791 Wentworth Ave,Mendota Heights,MN,55118,1995000,6,5,Mendota Heights,5697,22651,2021,140,350,,https://www.redfin.com/MN/Mendota-Heights/791-Wentworth-Ave-W-55118/home/177617533,NORTHSTARMLS,6119869,44.8986018,-93.1253475
MLS Listing,Single Family Residential,20268 Geneva Trl,Lakeville,MN,55044,644860,4,4,Cedar Hills,3760,15246,2021,142,172,50,https://www.redfin.com/MN/Lakeville/20268-Geneva-TRL-55044/home/176945818,NORTHSTARMLS,6119118,44.6559562,-93.21479022
MLS Listing,Single Family Residential,15450 Lucerne Cir,Burnsville,MN,55306,994900,5,5,Burnsville,3941,54667,2007,144,252,,https://www.redfin.com/MN/Burnsville/15450-Lucerne-Cir-55306/home/50077313,NORTHSTARMLS,6118576,44.7237009,-93.296448
MLS Listing,Single Family Residential,19133 N Cottage Rd,Farmington,MN,55024,498990,3,3,North Creek,1012,9147,2021,145,493,166,https://www.redfin.com/MN/Farmington/19133-Cottage-Rd-55024/home/176842496,NORTHSTARMLS,6118191,44.6727774,-93.1424585
MLS Listing,Condo/Co-op,4130 Rahn Rd #121,Eagan,MN,55122,122500,2,1,Eagan,900,,1972,146,136,380,https://www.redfin.com/MN/Eagan/4130-Rahn-Rd-55122/unit-121/home/50067505,NORTHSTARMLS,6117708,44.806893,-93.2057051
MLS Listing,Single Family Residential,187XX Kenwood Trl,Lakeville,MN,55044,1390620,4,3,The Enclave of Lakeville,4500,32670,2022,147,309,,https://www.redfin.com/MN/Lakeville/17744-Kenwood-Trl-55044/home/177528006,NORTHSTARMLS,6116890,44.692457,-93.2830594
MLS Listing,Single Family Residential,4006 Haven Woods Ct,Eagan,MN,55123,1588500,5,5,Haven Wood,4744,18556,2021,148,335,,https://www.redfin.com/MN/Eagan/4006-Woods-Ct-55122/home/174658849,NORTHSTARMLS,6115664,44.81264919,-93.11434319
MLS Listing,Townhouse,20149 Geneva Trl,Lakeville,MN,55044,552215,2,2,Cedar Hills,1697,4791,2021,148,325,130,https://www.redfin.com/MN/Lakeville/20149-Geneva-Trl-55044/home/175552352,NORTHSTARMLS,6115398,44.6589,-93.2157
MLS Listing,Single Family Residential,17826 Graphite Ln,Lakeville,MN,55044,553665,2,2,Summers Creek,1694,4486,2021,150,327,160,https://www.redfin.com/MN/Lakeville/17826-Graphite-Ln-55044/home/172759937,NORTHSTARMLS,6115272,44.6926651,-93.2237617
MLS Listing,Townhouse,xxxx5 W 217th St W,Farmington,MN,55024,510000,3,3,Vita Attiva at South Creek,1710,,2022,151,298,269,https://www.redfin.com/MN/Farmington/xxxx5-W-217th-ST-W-55024/home/176737491,NORTHSTARMLS,6114955,44.64068093,-93.16973664
MLS Listing,Single Family Residential,1436 Stickney Ave,South Saint Paul,MN,55075,479900,3,3,South Saint Paul,2197,24219,2022,152,218,,https://www.redfin.com/MN/South-St-Paul/1436-Stickney-Ave-55075/home/178611397,NORTHSTARMLS,6114284,44.9140585,-93.0597622
MLS Listing,Single Family Residential,2640 213th St,Farmington,MN,55024,499900,3,3,Sapphire Lake,1699,7405,2021,169,294,,https://www.redfin.com/MN/Farmington/2640-213th-St-W-55024/home/176549660,NORTHSTARMLS,6106198,44.6410169,-93.1245023
MLS Listing,Single Family Residential,5721 Upper 179 W,Lakeville,MN,55044,637900,5,4,Knob Hill,3316,8276,2021,169,192,,https://www.redfin.com/MN/Lakeville/5721-Upper-179th-St-W-55044/home/172672179,NORTHSTARMLS,6106066,44.6892368,-93.1813001
MLS Listing,Single Family Residential,17916 Greenwich Way,Lakeville,MN,55044,589900,3,2,Summers Creek,1945,4486,2021,171,303,160,https://www.redfin.com/MN/Lakeville/17916-Greenwich-Way-55044/home/172759915,NORTHSTARMLS,6105403,44.6911656,-93.2262167
MLS Listing,Condo/Co-op,4110 Rahn Rd #215,Eagan,MN,55122,111888,1,1,Eagan,700,,1971,172,160,308,https://www.redfin.com/MN/Eagan/4110-Rahn-Rd-55122/unit-215/home/50673293,NORTHSTARMLS,6103633,44.808047,-93.2062545
MLS Listing,Single Family Residential,17947 Gresford Ln,Lakeville,MN,55044,649900,5,3,Summers Creek,3611,4486,2022,172,180,160,https://www.redfin.com/MN/Lakeville/17947-Gresford-Ln-55044/home/172759886,NORTHSTARMLS,6105389,44.6900987,-93.2270793
MLS Listing,Single Family Residential,7740 Alder Trl,Inver Grove Heights,MN,55077,480000,2,2,Scenic Hills,1420,4704,2021,172,338,66,https://www.redfin.com/MN/INVER-GROVE-HEIGHTS/7740-ALDER-TRL-55077/home/172756920,NORTHSTARMLS,6105093,44.836945,-93.07568
MLS Listing,Townhouse,12903 Penn Ave S,Burnsville,MN,55337,355900,3,3,Burnsville Heights,1600,,2021,173,222,255,https://www.redfin.com/MN/Burnsville/12903-Penn-Ave-S-55337/home/50670392,NORTHSTARMLS,6104400,44.769433,-93.310438
MLS Listing,Single Family Residential,19063 Cloverleaf Way,Farmington,MN,55024,429635,2,2,Avebury Place,1819,7013,2021,179,236,175,https://www.redfin.com/MN/Farmington/19063-Cloverleaf-WAY-Unknown/home/176442076,NORTHSTARMLS,6102199,44.67328634,-93.13964514
MLS Listing,Single Family Residential,9686 Carbon Ct,Inver Grove Heights,MN,55076,599900,4,3,Pine Bend Estates,2316,8712,2021,183,259,79,https://www.redfin.com/MN/Inver-Grove-Heights/9686-Carbon-CT-Unknown/home/173864537,NORTHSTARMLS,6099224,44.80841016,-93.03707893
